nom	code_insee	departement	chef_lieu_departement	chef_lieu_region	longitude	latitude	nom_point
L'Abergement-Clémenciat	01001	01	0	0	4.920378706488112	46.151497820623931
L'Abergement-de-Varey	01002	01	0	0	5.424670251186692	46.00671440706919
Ambérieu-en-Bugey	01004	01	0	0	5.357963695903331	45.958573353967523
Ambérieux-en-Dombes	01005	01	0	0	4.903411999255733	45.998655610092513
Ambléon	01006	01	0	0	5.601278333281349	45.749620878237899
Ambronay	01007	01	0	0	5.359969997649283	46.005378068856807
Ambutrix	01008	01	0	0	5.337764316093753	45.939172838652077
Andert-et-Condon	01009	01	0	0	5.654904641752557	45.794321777928481
Anglefort	01010	01	0	0	5.809031088792616	45.91223328875526
Apremont	01011	01	0	0	5.656725676853233	46.206937026021343
Aranc	01012	01	0	0	5.508584062539942	46.003986230689492
Arandas	01013	01	0	0	5.486870256089213	45.895451362318163
Arbent	01014	01	0	0	5.680527226386595	46.295577172169516
Arbignieu	01015	01	0	0	5.650464366295659	45.728653450120071
Arbigny	01016	01	0	0	4.970682738528028	46.469502920689109
Argis	01017	01	0	0	5.491197562334259	45.934096551597897
Armix	01019	01	0	0	5.585340969471221	45.849094474014258
Ars-sur-Formans	01021	01	0	0	4.823056179778709	45.991870714507009
Artemare	01022	01	0	0	5.692304370420303	45.874526956379789
Asnières-sur-Saône	01023	01	0	0	4.882982867437208	46.383612364245472
Attignat	01024	01	0	0	5.160302101614965	46.286815048264145
Bâgé-la-Ville	01025	01	0	0	4.945649726377493	46.315905769171984
Bâgé-le-Châtel	01026	01	0	0	4.929773756511863	46.308069086448036
Balan	01027	01	0	0	5.098758279003504	45.833959485351642
Baneins	01028	01	0	0	4.902104253251628	46.110370837495886
Beaupont	01029	01	0	0	5.266829654512891	46.411762711338461
Beauregard	01030	01	0	0	4.751013093817734	46.002014483770054
Bellignat	01031	01	0	0	5.632572947094601	46.244439137416926
Béligneux	01032	01	0	0	5.129105926704948	45.852308628977269
Bellegarde-sur-Valserine	01033	01	0	0	5.8254921171203	46.107355009223816
Belley	01034	01	0	0	5.687976619826004	45.759300363801209
Belleydoux	01035	01	0	0	5.777141060480184	46.25271528328161
Belmont-Luthézieu	01036	01	0	0	5.66164259343922	45.880659345718477
Bénonces	01037	01	0	0	5.474816083724973	45.828145804826278
Bény	01038	01	0	0	5.283810447140047	46.319538023723702
Béon	01039	01	0	0	5.755823856387177	45.854974869339806
Béréziat	01040	01	0	0	5.046370587426665	46.367286840540054
Bettant	01041	01	0	0	5.362469325472958	45.94316416710501
Bey	01042	01	0	0	4.846196335049093	46.219381740108915
Beynost	01043	01	0	0	5.001048144162819	45.840236893019316
Billiat	01044	01	0	0	5.785079411262576	46.076817306576324
Birieux	01045	01	0	0	5.040015927578128	45.953039722413322
Biziat	01046	01	0	0	4.944727724037401	46.216838880884382
Blyes	01047	01	0	0	5.248791636279682	45.847286940134772
La Boisse	01049	01	0	0	5.035922137175716	45.842316042568946
Boissey	01050	01	0	0	4.996149212905239	46.381688267840389
Bolozon	01051	01	0	0	5.474424085590448	46.193032206200492
Bouligneux	01052	01	0	0	4.992157859645724	46.022351414222022
Bourg-en-Bresse	01053	01	1	0	5.228413317401763	46.204426991888617
Bourg-Saint-Christophe	01054	01	0	0	5.160249526447126	45.890453046094642
Boyeux-Saint-Jérôme	01056	01	0	0	5.456754994824569	46.030348164738598
Boz	01057	01	0	0	4.909816975419773	46.406585208838742
Brégnier-Cordon	01058	01	0	0	5.619682330695391	45.649185899613073
Brénaz	01059	01	0	0	5.723050038517814	45.948575585866756
Brénod	01060	01	0	0	5.605677215529159	46.06125909253592
Brens	01061	01	0	0	5.695001271668548	45.71858715242562
Bressolles	01062	01	0	0	5.094871590511957	45.867361570899256
Brion	01063	01	0	0	5.552598676773131	46.172383398843628
Briord	01064	01	0	0	5.459895321968423	45.782524545349951
Buellas	01065	01	0	0	5.133877453285622	46.208942956091306
La Burbanche	01066	01	0	0	5.560745596689189	45.846951853397712
Ceignes	01067	01	0	0	5.499652991070245	46.120405174388679
Cerdon	01068	01	0	0	5.465476087856036	46.080610850413947
Certines	01069	01	0	0	5.264367370300617	46.132548992583267
Cessy	01071	01	0	0	6.070530227121127	46.31907005106963
Ceyzériat	01072	01	0	0	5.323314110714757	46.178203697969494
Ceyzérieu	01073	01	0	0	5.726465871938072	45.834963625242331
Chalamont	01074	01	0	0	5.170842169699324	45.99564760221714
Chaleins	01075	01	0	0	4.804952220410501	46.030891931878486
Chaley	01076	01	0	0	5.530928492195139	45.955738544398798
Challes-la-Montagne	01077	01	0	0	5.464868288219382	46.124769529583155
Challex	01078	01	0	0	5.975876900758186	46.18100754407498
Champagne-en-Valromey	01079	01	0	0	5.676996823846055	45.904623964187458
Champdor	01080	01	0	0	5.597128616322226	46.017307265195853
Champfromier	01081	01	0	0	5.81698694480944	46.194068210663872
Chanay	01082	01	0	0	5.785353764842447	46.005627478145357
Chaneins	01083	01	0	0	4.852433103823325	46.096780526241666
Chanoz-Châtenay	01084	01	0	0	5.030478650111536	46.184713644424512
La Chapelle-du-Châtelard	01085	01	0	0	5.024894342840434	46.068612140271213
Charix	01087	01	0	0	5.684096809606961	46.182867991009566
Charnoz-sur-Ain	01088	01	0	0	5.222395884564243	45.864024617796936
Château-Gaillard	01089	01	0	0	5.304324192061262	45.973191245890142
Châtenay	01090	01	0	0	5.202059828546904	46.032880349336629
Châtillon-en-Michaille	01091	01	0	0	5.800157936817967	46.144025161279984
Châtillon-la-Palud	01092	01	0	0	5.248886699140245	45.976107717371114
Châtillon-sur-Chalaronne	01093	01	0	0	4.956850117505787	46.120249407733148
Chavannes-sur-Reyssouze	01094	01	0	0	4.992719283517636	46.430388725093046
Chavannes-sur-Suran	01095	01	0	0	5.426946613489428	46.263425649552325
Chaveyriat	01096	01	0	0	5.06079452979966	46.197679881317633
Chavornay	01097	01	0	0	5.719627199437015	45.879278826131475
Chazey-Bons	01098	01	0	0	5.682359474291853	45.802682562979477
Chazey-sur-Ain	01099	01	0	0	5.254494879601383	45.892216219468452
Cheignieu-la-Balme	01100	01	0	0	5.607501607045925	45.826961483201508
Chevillard	01101	01	0	0	5.582061536520989	46.109550808387233
Chevroux	01102	01	0	0	4.949258494139714	46.380697675411845
Chevry	01103	01	0	0	6.037212850740397	46.281214194412939
Chézery-Forens	01104	01	0	0	5.86643845407855	46.221666216183365
Civrieux	01105	01	0	0	4.881358323224198	45.920658929030829
Cize	01106	01	0	0	5.445097039080292	46.204477834243704
Cleyzieu	01107	01	0	0	5.430628519258491	45.907485584417401
Coligny	01108	01	0	0	5.346348294398347	46.383129715881324
Collonges	01109	01	0	0	5.90358486132346	46.138724209144804
Colomieu	01110	01	0	0	5.622363851027436	45.732914711780943
Conand	01111	01	0	0	5.471240527397916	45.892190367021605
Condamine	01112	01	0	0	5.550921678144787	46.108453097446791
Condeissiat	01113	01	0	0	5.080066870833939	46.158594604990171
Confort	01114	01	0	0	5.8224914158384	46.149779664458158
Confrançon	01115	01	0	0	5.064701445817319	46.266969736244619
Contrevoz	01116	01	0	0	5.628400502464677	45.805754131393215
Conzieu	01117	01	0	0	5.606602342552588	45.726072485746784
Corbonod	01118	01	0	0	5.810680083949526	45.969860376005137
Corcelles	01119	01	0	0	5.57471848016117	46.035838167546061
Corlier	01121	01	0	0	5.499437612448887	46.030315775313156
Cormaranche-en-Bugey	01122	01	0	0	5.610888346998995	45.953021084448501
Cormoranche-sur-Saône	01123	01	0	0	4.831355206565117	46.241239036647094
Cormoz	01124	01	0	0	5.231900938441837	46.449384714915112
Corveissiat	01125	01	0	0	5.481890080479539	46.243321345960787
Courmangoux	01127	01	0	0	5.368834708631395	46.33131511916573
Courtes	01128	01	0	0	5.10064732166432	46.459080383248917
Crans	01129	01	0	0	5.190287962197965	45.964644703808425
Cras-sur-Reyssouze	01130	01	0	0	5.165051887167508	46.308344368570246
Cressin-Rochefort	01133	01	0	0	5.762656162596898	45.785427720963945
Crottet	01134	01	0	0	4.892311746692614	46.277171817661745
Crozet	01135	01	0	0	6.012505129585009	46.280969624170041
Cruzilles-lès-Mépillat	01136	01	0	0	4.880101344068807	46.224230751179363
Culoz	01138	01	0	0	5.781309794030616	45.848943911198212
Curciat-Dongalon	01139	01	0	0	5.157330734120679	46.475138974365713
Curtafond	01140	01	0	0	5.088304931398408	46.272844707494535
Cuzieu	01141	01	0	0	5.674136892679838	45.819095830063787
Dagneux	01142	01	0	0	5.068492696462719	45.851633085047659
Divonne-les-Bains	01143	01	0	0	6.142930863298057	46.356747473318066
Dommartin	01144	01	0	0	4.9893402831301	46.337670246134039
Dompierre-sur-Veyle	01145	01	0	0	5.204868252445984	46.070661121242999
Dompierre-sur-Chalaronne	01146	01	0	0	4.90455390181434	46.143657507596572
Domsure	01147	01	0	0	5.294497348156569	46.419317396855966
Dortan	01148	01	0	0	5.659548967016732	46.318593688570701
Douvres	01149	01	0	0	5.373479089643619	45.988879639454517
Drom	01150	01	0	0	5.369118583847493	46.217797999485079
Druillat	01151	01	0	0	5.31703608143691	46.060317126596601
Échallon	01152	01	0	0	5.741248997259041	46.210336517222551
Échenevex	01153	01	0	0	6.036164968566458	46.309177535452143
Étrez	01154	01	0	0	5.184278604163145	46.334101028953192
Évosges	01155	01	0	0	5.497581636875458	45.960984090485944
Faramans	01156	01	0	0	5.125861114053063	45.901914763561642
Fareins	01157	01	0	0	4.7619243584803	46.01985963538192
Farges	01158	01	0	0	5.90510957605272	46.16752028648024
Feillens	01159	01	0	0	4.89043763319837	46.335750556990064
Ferney-Voltaire	01160	01	0	0	6.108557192065321	46.255857591096742
Flaxieu	01162	01	0	0	5.735471680128398	45.808615901477872
Foissiat	01163	01	0	0	5.175314902394397	46.370304921401079
Francheleins	01165	01	0	0	4.808958730447077	46.074062971661021
Frans	01166	01	0	0	4.773946715338441	45.991749776311586
Garnerans	01167	01	0	0	4.840555090562398	46.205962262120877
Genouilleux	01169	01	0	0	4.787139462029909	46.119444823250369
Béard-Géovreissiat	01170	01	0	0	5.557282578575031	46.189396259641804
Géovreisset	01171	01	0	0	5.617566241662607	46.25649806871688
Germagnat	01172	01	0	0	5.448545506669337	46.310711217447938
Gex	01173	01	0	0	6.058298404129101	46.332916337656719
Giron	01174	01	0	0	5.77447578171062	46.225749208930353
Gorrevod	01175	01	0	0	4.941400953809348	46.415960385415715
Le Grand-Abergement	01176	01	0	0	5.675510674552713	46.033503517147196
Grand-Corent	01177	01	0	0	5.430598114797217	46.199383272335901
Grièges	01179	01	0	0	4.849975413635589	46.254448718998553
Grilly	01180	01	0	0	6.115401382351458	46.330468069022409
Groissiat	01181	01	0	0	5.612385689617916	46.229587923781565
Groslée	01182	01	0	0	5.56609805223717	45.712586603390207
Guéreins	01183	01	0	0	4.780287011786312	46.107843157198381
Hautecourt-Romanèche	01184	01	0	0	5.417185907571484	46.160029345099602
Hauteville-Lompnes	01185	01	0	0	5.599174946564295	45.978518184408571
Hostiaz	01186	01	0	0	5.534894144059109	45.901592372767752
Hotonnes	01187	01	0	0	5.693173373191415	45.997945525686475
Illiat	01188	01	0	0	4.888001825680289	46.189871755126923
Injoux-Génissiat	01189	01	0	0	5.803189995833634	46.05114148720854
Innimond	01190	01	0	0	5.573218892568002	45.782699569380632
Izenave	01191	01	0	0	5.525652878926155	46.037843129697052
Izernore	01192	01	0	0	5.553566296842626	46.221013210938551
Izieu	01193	01	0	0	5.643080767109952	45.654945727179815
Jassans-Riottier	01194	01	0	0	4.756954790969394	45.985709615879607
Jasseron	01195	01	0	0	5.32476417183357	46.212407260944282
Jayat	01196	01	0	0	5.120663502020318	46.370433454854165
Journans	01197	01	0	0	5.33226357411865	46.1446878559426
Joyeux	01198	01	0	0	5.099724456651666	45.960955854387542
Jujurieux	01199	01	0	0	5.409337314453801	46.040375266052898
Labalme	01200	01	0	0	5.48285934887845	46.092844777947249
Lagnieu	01202	01	0	0	5.349168098555982	45.903801876566661
Laiz	01203	01	0	0	4.888721282451165	46.248407880600077
Lalleyriat	01204	01	0	0	5.715106425372011	46.154199747082274
Lancrans	01205	01	0	0	5.832843401964944	46.124292024613801
Lantenay	01206	01	0	0	5.542076412752467	46.057297039552758
Lapeyrouse	01207	01	0	0	4.976519839852964	45.982991166826146
Lavours	01208	01	0	0	5.772880324047072	45.80950511919275
Léaz	01209	01	0	0	5.88721435566819	46.098592602945473
Lélex	01210	01	0	0	5.942236859894177	46.303532845389498
Lent	01211	01	0	0	5.195170801845418	46.119494448085987
Lescheroux	01212	01	0	0	5.146820684854434	46.40687678602994
Leyment	01213	01	0	0	5.294477347150027	45.922942345145891
Leyssard	01214	01	0	0	5.475349822575529	46.156074010115397
Lhôpital	01215	01	0	0	5.778423410139582	46.022016585150396
Lhuis	01216	01	0	0	5.532935608758738	45.746672134344713
Lochieu	01218	01	0	0	5.727319000490924	45.930452167244518
Lompnas	01219	01	0	0	5.520053780225148	45.80281957395384
Lompnieu	01221	01	0	0	5.660397078936195	45.961779032403555
Loyettes	01224	01	0	0	5.20333874081524	45.774313683916603
Lurcy	01225	01	0	0	4.781415388629845	46.062789503535427
Magnieu	01227	01	0	0	5.719675557125209	45.775659740691928
Maillat	01228	01	0	0	5.537644578183206	46.129472688109963
Malafretaz	01229	01	0	0	5.146168576471618	46.32401539854861
Mantenay-Montlin	01230	01	0	0	5.097994803176934	46.423998856775576
Manziat	01231	01	0	0	4.908181367121832	46.359774669380897
Marboz	01232	01	0	0	5.2587573041078	46.342558459927126
Marchamp	01233	01	0	0	5.548528957135304	45.777854257425375
Marignieu	01234	01	0	0	5.720739512194034	45.797258670494926
Marlieux	01235	01	0	0	5.072643648572255	46.065047198430307
Marsonnas	01236	01	0	0	5.07138796790572	46.340712581985059
Martignat	01237	01	0	0	5.608806274796913	46.208947686716158
Massieux	01238	01	0	0	4.830633465275096	45.908880906569237
Massignieu-de-Rives	01239	01	0	0	5.767509112963944	45.753772296290869
Matafelon-Granges	01240	01	0	0	5.554157693103664	46.261542749254716
Meillonnas	01241	01	0	0	5.35212434900479	46.245177188662986
Mérignat	01242	01	0	0	5.43650258879802	46.069524943059029
Messimy-sur-Saône	01243	01	0	0	4.764140630462217	46.048648076979461
Meximieux	01244	01	0	0	5.194337930633087	45.904209952584949
Bohas-Meyriat-Rignat	01245	01	0	0	5.391555253503242	46.137148430873232
Mézériat	01246	01	0	0	5.046616452127899	46.234868178489876
Mijoux	01247	01	0	0	5.995071933876657	46.366134990192243
Mionnay	01248	01	0	0	4.929490387688198	45.89462683071654
Miribel	01249	01	0	0	4.952787820785858	45.823966992493588
Misérieux	01250	01	0	0	4.810809877292554	45.973151845235925
Mogneneins	01252	01	0	0	4.812360515015715	46.137960227199216
Montagnat	01254	01	0	0	5.284103791756952	46.170890810750898
Montagnieu	01255	01	0	0	5.466849901038166	45.794084777246646
Montanges	01257	01	0	0	5.801168787218318	46.16382340303452
Montceaux	01258	01	0	0	4.796759554515329	46.09677492997794
Montcet	01259	01	0	0	5.111974542472705	46.21295510042107
Le Montellier	01260	01	0	0	5.07272340480959	45.929925380196991
Monthieux	01261	01	0	0	4.940733667348125	45.957487931484181
Montluel	01262	01	0	0	5.056898933109866	45.851844768712766
Montmerle-sur-Saône	01263	01	0	0	4.758712849182517	46.081158100484409
Montracol	01264	01	0	0	5.121755359650262	46.197459287313514
Montréal-la-Cluse	01265	01	0	0	5.570114826747742	46.186403918860655
Montrevel-en-Bresse	01266	01	0	0	5.128468981150212	46.336958574549428
Nurieux-Volognat	01267	01	0	0	5.521837626827776	46.180277865538855
Murs-et-Gélignieux	01268	01	0	0	5.661681540715461	45.640992496950375
Nantua	01269	01	0	0	5.606152630411073	46.153148071799421
Nattages	01271	01	0	0	5.757207818082081	45.727894603825746
Neuville-les-Dames	01272	01	0	0	5.003735437526584	46.162668868906117
Neuville-sur-Ain	01273	01	0	0	5.372349903728905	46.082596684940647
Les Neyrolles	01274	01	0	0	5.634123873401509	46.141690938539327
Neyron	01275	01	0	0	4.931839604340115	45.814418956960353
Niévroz	01276	01	0	0	5.063685228250774	45.826498632032681
Nivollet-Montgriffon	01277	01	0	0	5.446027854633769	45.99274138334431
Oncieu	01279	01	0	0	5.472939727178463	45.958822360557015
Ordonnaz	01280	01	0	0	5.538396445889244	45.837545805542675
Ornex	01281	01	0	0	6.092812598938915	46.27611239850966
Outriaz	01282	01	0	0	5.546413508155557	46.067110266588834
Oyonnax	01283	01	0	0	5.655191548305504	46.255626346657316
Ozan	01284	01	0	0	4.915786836669486	46.391172759163645
Parcieux	01285	01	0	0	4.825683717153701	45.915266052305391
Parves	01286	01	0	0	5.741306443832904	45.744501052046068
Péron	01288	01	0	0	5.927081025492431	46.190384970072905
Péronnas	01289	01	0	0	5.202732271507483	46.17880323020713
Pérouges	01290	01	0	0	5.178829889981406	45.903608998131574
Perrex	01291	01	0	0	4.978220368758491	46.245986434449755
Le Petit-Abergement	01292	01	0	0	5.663837636474847	46.032877493787993
Peyriat	01293	01	0	0	5.510277084007959	46.154406544085042
Peyrieu	01294	01	0	0	5.677535348875166	45.676656384445657
Peyzieux-sur-Saône	01295	01	0	0	4.815888114462325	46.127095168092055
Pirajoux	01296	01	0	0	5.298995859064926	46.371482035959822
Pizay	01297	01	0	0	5.089247276066717	45.889085077028753
Plagne	01298	01	0	0	5.728641314550832	46.191718354483868
Le Plantay	01299	01	0	0	5.089173972344385	46.023306793015372
Le Poizat	01300	01	0	0	5.695151061794814	46.143862895064913
Polliat	01301	01	0	0	5.126338126491349	46.248719736261336
Pollieu	01302	01	0	0	5.741458990820617	45.799460296142712
Poncin	01303	01	0	0	5.406137280865679	46.085488682044989
Pont-d'Ain	01304	01	0	0	5.335933082511335	46.048217912960538
Pont-de-Vaux	01305	01	0	0	4.938071422077789	46.432230140731427
Pont-de-Veyle	01306	01	0	0	4.887951209575129	46.263733179160788
Port	01307	01	0	0	5.570397925917889	46.164774418774208
Pougny	01308	01	0	0	5.949036400329624	46.140256076723681
Pouillat	01309	01	0	0	5.428483472993875	46.327356866995302
Prémeyzel	01310	01	0	0	5.648308613852822	45.683654514860521
Prémillieu	01311	01	0	0	5.571018890651961	45.873747556697005
Pressiat	01312	01	0	0	5.385372765125582	46.322862190329666
Prévessin-Moëns	01313	01	0	0	6.082563448447248	46.255663651480482
Priay	01314	01	0	0	5.290068826896262	46.003209245219089
Pugieu	01316	01	0	0	5.649767487506336	45.821472462433327
Ramasse	01317	01	0	0	5.35514610197555	46.194665252653479
Rancé	01318	01	0	0	4.868696161619489	45.965906063226321
Relevant	01319	01	0	0	4.949322577710212	46.090653715827315
Replonges	01320	01	0	0	4.885669430834779	46.310609117972284
Revonnas	01321	01	0	0	5.33040001913507	46.161842807476575
Reyrieux	01322	01	0	0	4.82372984153376	45.934212965543608
Reyssouze	01323	01	0	0	4.919812437758941	46.43163787659455
Rignieux-le-Franc	01325	01	0	0	5.189321429364477	45.940340748736098
Romans	01328	01	0	0	5.022870242734984	46.119092219091343
Rossillon	01329	01	0	0	5.593552115557139	45.831787660353221
Ruffieu	01330	01	0	0	5.663255061399757	45.99414799650576
Saint-Alban	01331	01	0	0	5.453185427737122	46.095292115462982
Saint-André-de-Bâgé	01332	01	0	0	4.917609483282652	46.294763389746002
Saint-André-de-Corcy	01333	01	0	0	4.95255544313533	45.926658506886611
Saint-André-d'Huiriat	01334	01	0	0	4.912181116042762	46.213787769929624
Saint-André-le-Bouchoux	01335	01	0	0	5.07849799487334	46.11718654881512
Saint-André-sur-Vieux-Jonc	01336	01	0	0	5.146130409147909	46.157365767384015
Saint-Bénigne	01337	01	0	0	4.960656995769927	46.44445485340092
Saint-Benoît	01338	01	0	0	5.588422278592018	45.694957549257801
Saint-Bernard	01339	01	0	0	4.737595301348908	45.945476308389033
Saint-Bois	01340	01	0	0	5.634913195397053	45.699285498860661
Saint-Champ	01341	01	0	0	5.730409182808464	45.784410711040508
Sainte-Croix	01342	01	0	0	5.052031695747766	45.894270710206307
Saint-Cyr-sur-Menthon	01343	01	0	0	4.972802829473403	46.27580555947516
Saint-Denis-lès-Bourg	01344	01	0	0	5.191897421559928	46.199731841603914
Saint-Denis-en-Bugey	01345	01	0	0	5.329266426382522	45.951960486472501
Saint-Didier-d'Aussiat	01346	01	0	0	5.061000567833067	46.306671257461993
Saint-Didier-de-Formans	01347	01	0	0	4.78056017736959	45.956517863791589
Saint-Didier-sur-Chalaronne	01348	01	0	0	4.817557358688022	46.177509065870765
Saint-Éloi	01349	01	0	0	5.152878356561245	45.932932551439578
Saint-Étienne-du-Bois	01350	01	0	0	5.292882621230076	46.287825908551952
Saint-Étienne-sur-Chalaronne	01351	01	0	0	4.867087101165035	46.146981809077829
Saint-Étienne-sur-Reyssouze	01352	01	0	0	5.001205377087631	46.413126045805591
Sainte-Euphémie	01353	01	0	0	4.797869049094374	45.97245733773822
Saint-Genis-Pouilly	01354	01	0	0	6.020850823244044	46.243801799224251
Saint-Genis-sur-Menthon	01355	01	0	0	5.009416650143764	46.28237137515432
Saint-Georges-sur-Renon	01356	01	0	0	5.031431963020827	46.105427534657302
Saint-Germain-de-Joux	01357	01	0	0	5.738333726949327	46.177969848992944
Saint-Germain-les-Paroisses	01358	01	0	0	5.617856074827894	45.773563744966751
Saint-Germain-sur-Renon	01359	01	0	0	5.057698305497425	46.080632881136836
Saint-Jean-de-Gonville	01360	01	0	0	5.951614782305425	46.212278235074507
Saint-Jean-de-Niost	01361	01	0	0	5.218841282054585	45.839771594934675
Saint-Jean-de-Thurigneux	01362	01	0	0	4.882434786058575	45.952167225176531
Saint-Jean-le-Vieux	01363	01	0	0	5.389402646092189	46.02818457924316
Saint-Jean-sur-Reyssouze	01364	01	0	0	5.063062155939208	46.395810853591698
Saint-Jean-sur-Veyle	01365	01	0	0	4.91501920912432	46.257876547321807
Sainte-Julie	01366	01	0	0	5.278912300052383	45.889924901194917
Saint-Julien-sur-Reyssouze	01367	01	0	0	5.11144285421627	46.401231313579714
Saint-Julien-sur-Veyle	01368	01	0	0	4.954588579503469	46.202257696366537
Saint-Just	01369	01	0	0	5.279707140698381	46.189897171986722
Saint-Laurent-sur-Saône	01370	01	0	0	4.839989369915943	46.305051001772355
Saint-Marcel	01371	01	0	0	4.986906555861242	45.948579847031503
Saint-Martin-de-Bavel	01372	01	0	0	5.67690818991268	45.849664455565836
Saint-Martin-du-Frêne	01373	01	0	0	5.552344259733182	46.139053707725608
Saint-Martin-du-Mont	01374	01	0	0	5.32784071331905	46.101536380735638
Saint-Martin-le-Châtel	01375	01	0	0	5.11594732255436	46.28224308593952
Saint-Maurice-de-Beynost	01376	01	0	0	4.974934441815613	45.830788001819599
Saint-Maurice-de-Gourdans	01378	01	0	0	5.194907869353266	45.821321616286788
Saint-Maurice-de-Rémens	01379	01	0	0	5.275290919196558	45.958463714241553
Saint-Nizier-le-Bouchoux	01380	01	0	0	5.15151557763483	46.459935202703058
Saint-Nizier-le-Désert	01381	01	0	0	5.148623191106298	46.055525730371066
Sainte-Olive	01382	01	0	0	4.933848568350464	46.018857620569243
Saint-Paul-de-Varax	01383	01	0	0	5.128316340246751	46.09914793692213
Saint-Rambert-en-Bugey	01384	01	0	0	5.437617298498306	45.948777552989355
Saint-Rémy	01385	01	0	0	5.168136326639979	46.189377591046537
Saint-Sorlin-en-Bugey	01386	01	0	0	5.37031144945547	45.885342655198684
Saint-Sulpice	01387	01	0	0	5.042020832321964	46.320524689525691
Saint-Trivier-de-Courtes	01388	01	0	0	5.0811094483196	46.45943799435463
Saint-Trivier-sur-Moignans	01389	01	0	0	4.898239616202933	46.073504791290837
Saint-Vulbas	01390	01	0	0	5.290772021928598	45.833831189422945
Salavre	01391	01	0	0	5.345498123894697	46.363328183251838
Samognat	01392	01	0	0	5.576047282619645	46.257445535935439
Sandrans	01393	01	0	0	4.980726992214813	46.063987415523826
Sault-Brénaz	01396	01	0	0	5.410255073060314	45.854767875277695
Sauverny	01397	01	0	0	6.114529972179343	46.315171943606778
Savigneux	01398	01	0	0	4.847928418905951	46.001375780681698
Ségny	01399	01	0	0	6.073212541814239	46.297369956540244
Seillonnaz	01400	01	0	0	5.490577950849418	45.806176701366226
Sergy	01401	01	0	0	6.000593167314419	46.253349261421626
Sermoyer	01402	01	0	0	4.980913923072445	46.499951008745846
Serrières-de-Briord	01403	01	0	0	5.454583358082461	45.807866148286323
Serrières-sur-Ain	01404	01	0	0	5.450580980384467	46.153007394575191
Servas	01405	01	0	0	5.165896065058395	46.132668336929399
Servignat	01406	01	0	0	5.069698823935448	46.433523057221628
Seyssel	01407	01	0	0	5.830773774099224	45.958546783385536
Simandre-sur-Suran	01408	01	0	0	5.417451415681122	46.224888933985874
Songieu	01409	01	0	0	5.702310147050104	45.973400344044776
Sonthonnax-la-Montagne	01410	01	0	0	5.524282289436312	46.233379238579928
Souclin	01411	01	0	0	5.418931010419514	45.876204390273443
Sulignat	01412	01	0	0	4.962761370381017	46.176895555929512
Surjoux	01413	01	0	0	5.803105435715517	46.024111805115865
Sutrieu	01414	01	0	0	5.658585013933263	45.951009571372374
Talissieu	01415	01	0	0	5.725402392717695	45.865624263174169
Tenay	01416	01	0	0	5.508641395752058	45.920196866443575
Thézillieu	01417	01	0	0	5.600298601371227	45.892899170980186
Thil	01418	01	0	0	5.021986565073441	45.813741195247879
Thoiry	01419	01	0	0	5.980156181972246	46.235863981245934
Thoissey	01420	01	0	0	4.801828479842697	46.172355204295698
Torcieu	01421	01	0	0	5.395152789726247	45.9226570909169
Tossiat	01422	01	0	0	5.315277213890004	46.141431920876208
Toussieux	01423	01	0	0	4.828467070600949	45.960257803230313
Tramoyes	01424	01	0	0	4.966236098988262	45.875978334219283
La Tranclière	01425	01	0	0	5.262182234694829	46.11097196026688
Treffort-Cuisiat	01426	01	0	0	5.368820989874334	46.270956433521441
Trévoux	01427	01	0	0	4.774903820635885	45.941294453056464
Valeins	01428	01	0	0	4.871101430836432	46.112687607792921
Vandeins	01429	01	0	0	5.07969425135802	46.217153209671807
Varambon	01430	01	0	0	5.316201457368841	46.040514848942429
Vaux-en-Bugey	01431	01	0	0	5.354074036210809	45.928023955985147
Verjon	01432	01	0	0	5.351262940647395	46.346092952579205
Vernoux	01433	01	0	0	5.110635503381654	46.48141567383265
Versailleux	01434	01	0	0	5.104319174213181	45.979787593187794
Versonnex	01435	01	0	0	6.096884486325949	46.302135579625521
Vesancy	01436	01	0	0	6.090389401002112	46.348271321024129
Vescours	01437	01	0	0	5.024331309812659	46.47487025475963
Vésines	01439	01	0	0	4.867812193571239	46.35864162104054
Vieu-d'Izenave	01441	01	0	0	5.52893259230798	46.081015731556889
Vieu	01442	01	0	0	5.681496418910639	45.891002156821536
Villars-les-Dombes	01443	01	0	0	5.03022615298566	46.002759217378447
Villebois	01444	01	0	0	5.435738715385102	45.847914847474087
Villemotier	01445	01	0	0	5.321331084335348	46.345805567015901
Villeneuve	01446	01	0	0	4.836963569327982	46.02137029772404
Villereversure	01447	01	0	0	5.396542514902705	46.1919982225129
Villes	01448	01	0	0	5.784379317899826	46.088548147047291
Villette-sur-Ain	01449	01	0	0	5.268771358216078	45.98832311002576
Villieu-Loyes-Mollon	01450	01	0	0	5.222103889102627	45.920783856562743
Viriat	01451	01	0	0	5.216118035454431	46.253312454606373
Virieu-le-Grand	01452	01	0	0	5.652395569020365	45.849341735454466
Virieu-le-Petit	01453	01	0	0	5.724960693637653	45.908884303465399
Virignin	01454	01	0	0	5.712943959719803	45.717255573807812
Vongnes	01456	01	0	0	5.72420081296509	45.815195694008388
Vonnas	01457	01	0	0	4.990246738466125	46.219654474860782
Abbécourt	02001	02	0	0	3.17972654087568	49.595978021507989
Achery	02002	02	0	0	3.389219336998106	49.69253680422738
Acy	02003	02	0	0	3.414117311999066	49.345543867740517
Agnicourt-et-Séchelles	02004	02	0	0	3.953427217480277	49.716382830309989
Aguilcourt	02005	02	0	0	3.968349239701519	49.406197849607288
Aisonville-et-Bernoville	02006	02	0	0	3.521880067076773	49.933719133910422
Aizelles	02007	02	0	0	3.811256324628892	49.49004619780537
Aizy-Jouy	02008	02	0	0	3.516824745911052	49.435035020464007
Alaincourt	02009	02	0	0	3.375895826805851	49.764459957933759
Allemant	02010	02	0	0	3.453658691056339	49.46135355957896
Ambleny	02011	02	0	0	3.18448458961505	49.381168716692578
Ambrief	02012	02	0	0	3.401525405735252	49.318618905476441
Amifontaine	02013	02	0	0	3.918750448397044	49.482987361759911
Amigny-Rouy	02014	02	0	0	3.304236855500147	49.610108295154149
Ancienville	02015	02	0	0	3.214089871512726	49.216614325432779
Andelain	02016	02	0	0	3.370848728454582	49.642273681794613
Anguilcourt-le-Sart	02017	02	0	0	3.432126989923924	49.688797800476451
Anizy-le-Château	02018	02	0	0	3.449914908854782	49.506306082441682
Annois	02019	02	0	0	3.177393243670753	49.720884286567831
Any-Martin-Rieux	02020	02	0	0	4.220675397590384	49.88112535440424
Archon	02021	02	0	0	4.118885851805509	49.741034257281243
Arcy-Sainte-Restitue	02022	02	0	0	3.464187954191494	49.252770072961241
Armentières-sur-Ourcq	02023	02	0	0	3.386757757715025	49.182919600189827
Arrancy	02024	02	0	0	3.754719079099667	49.492208992489878
Artemps	02025	02	0	0	3.190029586222026	49.764891392519253
Artonges	02026	02	0	0	3.55273801099323	48.928704834107208
Assis-sur-Serre	02027	02	0	0	3.558160304285488	49.688285068409094
Athies-sous-Laon	02028	02	0	0	3.682670110549132	49.573522866986238
Attilly	02029	02	0	0	3.16813768338086	49.856562356685252
Aubencheul-aux-Bois	02030	02	0	0	3.26491234088832	50.028859958184761
Aubenton	02031	02	0	0	4.204324442771876	49.836364120368415
Aubigny-aux-Kaisnes	02032	02	0	0	3.116533054681755	49.77306997940434
Aubigny-en-Laonnois	02033	02	0	0	3.790686746230297	49.498271246373434
Audignicourt	02034	02	0	0	3.133796874677689	49.478306990889685
Audigny	02035	02	0	0	3.646317475937198	49.869342232516743
Augy	02036	02	0	0	3.513101234733594	49.337972847278607
Aulnois-sous-Laon	02037	02	0	0	3.607124388304074	49.612567057737486
Les Autels	02038	02	0	0	4.224800943145788	49.763378847091701
Autremencourt	02039	02	0	0	3.786936794674408	49.704093970832858
Autreppes	02040	02	0	0	3.855394929627184	49.903992696519708
Autreville	02041	02	0	0	3.240506203096103	49.585089049877801
Azy-sur-Marne	02042	02	0	0	3.366272247295724	49.001359075246143
Bagneux	02043	02	0	0	3.278515753944733	49.457388901515912
Bancigny	02044	02	0	0	4.034132946661303	49.801086552100443
Barenton-Bugny	02046	02	0	0	3.651640022028655	49.633005378808889
Barenton-Cel	02047	02	0	0	3.653149364823183	49.642882225110135
Barenton-sur-Serre	02048	02	0	0	3.679821348169277	49.671491681665984
Barisis	02049	02	0	0	3.327545034036722	49.578594837928122
Barzy-en-Thiérache	02050	02	0	0	3.746155131417229	50.043042864173017
Barzy-sur-Marne	02051	02	0	0	3.558453790548783	49.079747371280895
Bassoles-Aulers	02052	02	0	0	3.381057244253408	49.526314191588263
Baulne-en-Brie	02053	02	0	0	3.613475465131084	48.986861499230564
Bazoches-sur-Vesles	02054	02	0	0	3.618652541876911	49.30691456909134
Beaumé	02055	02	0	0	4.151567661569881	49.837771666123295
Beaumont-en-Beine	02056	02	0	0	3.132958688151013	49.6876951903227
Beaurevoir	02057	02	0	0	3.309332100827634	49.996420714593896
Beaurieux	02058	02	0	0	3.73673425507369	49.392548797560345
Beautor	02059	02	0	0	3.344617952239902	49.651336853863768
Beauvois-en-Vermandois	02060	02	0	0	3.104181002146727	49.838666090769053
Becquigny	02061	02	0	0	3.469767516473629	50.017467670491897
Belleau	02062	02	0	0	3.292933261889814	49.083385102539424
Bellenglise	02063	02	0	0	3.243486725801481	49.92201391021613
Belleu	02064	02	0	0	3.335785239173831	49.359270274641112
Bellicourt	02065	02	0	0	3.235316953832478	49.960655839839347
Benay	02066	02	0	0	3.305123910619683	49.759266782965483
Bergues-sur-Sambre	02067	02	0	0	3.705574472814443	50.033402913972111
Berlancourt	02068	02	0	0	3.757561952307954	49.778858560602266
Berlise	02069	02	0	0	4.107509522751451	49.663856736787679
Bernot	02070	02	0	0	3.498980608171144	49.869134487496119
Berny-Rivière	02071	02	0	0	3.140497265609581	49.406395502250732
Berrieux	02072	02	0	0	3.848475436869334	49.487993769070528
Berry-au-Bac	02073	02	0	0	3.90219026335078	49.404012544246584
Bertaucourt-Epourdon	02074	02	0	0	3.388721570840485	49.626941401678934
Berthenicourt	02075	02	0	0	3.381497630245933	49.77163034942442
Bertricourt	02076	02	0	0	4.009457108374655	49.395074944414297
Berzy-le-Sec	02077	02	0	0	3.312238251369285	49.334164280418555
Besmé	02078	02	0	0	3.164334812699234	49.538484617313458
Besmont	02079	02	0	0	4.122400446490631	49.838043311285332
Besny-et-Loizy	02080	02	0	0	3.582089101083973	49.600108352247616
Béthancourt-en-Vaux	02081	02	0	0	3.148022149677349	49.628371427875621
Beugneux	02082	02	0	0	3.414597354973874	49.234071741359493
Beuvardes	02083	02	0	0	3.489234127757455	49.142088502193907
Bézu-le-Guéry	02084	02	0	0	3.225531764792939	49.008000489875862
Bézu-Saint-Germain	02085	02	0	0	3.409482227267093	49.108220271312902
Bichancourt	02086	02	0	0	3.214221668921091	49.579746290107998
Bieuxy	02087	02	0	0	3.261915508265619	49.446640417255423
Bièvres	02088	02	0	0	3.710582196673169	49.49337454584478
Billy-sur-Aisne	02089	02	0	0	3.382554296723512	49.356434651547964
Billy-sur-Ourcq	02090	02	0	0	3.301926129579205	49.217325331859115
Blanzy-lès-Fismes	02091	02	0	0	3.672676505937537	49.33808880084495
Blérancourt	02093	02	0	0	3.150459415475761	49.516034741014288
Blesmes	02094	02	0	0	3.451317654785822	49.037037397299244
Bohain-en-Vermandois	02095	02	0	0	3.454153595815529	49.986088825893532
Bois-lès-Pargny	02096	02	0	0	3.650114672727486	49.730959336003366
Boncourt	02097	02	0	0	3.944658745519258	49.616702661362716
Bonneil	02098	02	0	0	3.348547775100972	49.007706307264819
Bonnesvalyn	02099	02	0	0	3.3164393012021	49.121987692989208
Bony	02100	02	0	0	3.222907201524299	49.988524500472273
Bosmont-sur-Serre	02101	02	0	0	3.859442302620018	49.731459413577412
Bouconville-Vauclair	02102	02	0	0	3.755702608657105	49.465238778948816
Boué	02103	02	0	0	3.698306808875825	50.011887332252499
Bouffignereux	02104	02	0	0	3.845220479020858	49.37386129976278
Bouresches	02105	02	0	0	3.309241324974289	49.063563056950727
Bourg-et-Comin	02106	02	0	0	3.654159503551292	49.396619011589046
Bourguignon-sous-Coucy	02107	02	0	0	3.158827634884052	49.543884158619385
Bourguignon-sous-Montbavin	02108	02	0	0	3.541235854140464	49.528401458150228
La Bouteille	02109	02	0	0	3.971379903730812	49.859104099316326
Braine	02110	02	0	0	3.532396252035563	49.341485041758212
Brancourt-en-Laonnois	02111	02	0	0	3.418238851321445	49.514508164754723
Brancourt-le-Grand	02112	02	0	0	3.381639089467762	49.976455641417381
Brasles	02114	02	0	0	3.428164830015112	49.048811487824842
Braye-en-Laonnois	02115	02	0	0	3.607856841602747	49.440904016536955
Braye-en-Thiérache	02116	02	0	0	3.958761981136159	49.779239555577249
Bray-Saint-Christophe	02117	02	0	0	3.144273894752116	49.771243387767321
Braye	02118	02	0	0	3.370647618480042	49.42298726426138
Brécy	02119	02	0	0	3.428982303622856	49.147712871553644
Brenelle	02120	02	0	0	3.543657247389837	49.365705324470397
Breny	02121	02	0	0	3.352489566900517	49.185721901053654
Brie	02122	02	0	0	3.482542155147079	49.600544529750856
Brissay-Choigny	02123	02	0	0	3.378344268660476	49.720425816054913
Brissy-Hamégicourt	02124	02	0	0	3.379903483037259	49.743782286401213
Brumetz	02125	02	0	0	3.160211162860956	49.10161772391973
Brunehamel	02126	02	0	0	4.181953003410362	49.770091823520652
Bruyères-sur-Fère	02127	02	0	0	3.443048951527793	49.189918126728486
Bruyères-et-Montbérault	02128	02	0	0	3.66406678071578	49.524196250193
Bruys	02129	02	0	0	3.563261094344006	49.270327987432587
Bucilly	02130	02	0	0	4.092670496466607	49.876946483586565
Bucy-le-Long	02131	02	0	0	3.39382367466166	49.390555722623191
Bucy-lès-Cerny	02132	02	0	0	3.516926230981944	49.582429738156755
Bucy-lès-Pierrepont	02133	02	0	0	3.902307933639539	49.646680455215396
Buire	02134	02	0	0	4.057051613312789	49.902415355539127
Buironfosse	02135	02	0	0	3.834141515386746	49.965226079006953
Burelles	02136	02	0	0	3.897749002103123	49.781501044336601
Bussiares	02137	02	0	0	3.257379202965387	49.090659534150326
Buzancy	02138	02	0	0	3.347861413290219	49.313391809894576
Caillouël-Crépigny	02139	02	0	0	3.127253584535139	49.621206019687129
Camelin	02140	02	0	0	3.133918520470776	49.525041347915312
La Capelle	02141	02	0	0	3.916521597778063	49.977213195641575
Castres	02142	02	0	0	3.237373427082245	49.804340198120677
Le Catelet	02143	02	0	0	3.243869164691446	50.001957810542315
Caulaincourt	02144	02	0	0	3.105623965390687	49.86471769319013
Caumont	02145	02	0	0	3.177085546165541	49.631927007624995
Celles-lès-Condé	02146	02	0	0	3.571398064701408	49.012247592745247
La Celle-sous-Montmirail	02147	02	0	0	3.466178599845183	48.864322945673408
Celles-sur-Aisne	02148	02	0	0	3.482101388645375	49.406415534395109
Cerizy	02149	02	0	0	3.327320244043206	49.760107678591588
Cerny-en-Laonnois	02150	02	0	0	3.668536932037673	49.443280694468079
Cerny-lès-Bucy	02151	02	0	0	3.548666799941942	49.577797076635669
Cerseuil	02152	02	0	0	3.52120935814624	49.323555356235644
Cessières	02153	02	0	0	3.495960061387108	49.558252604770161
Chacrise	02154	02	0	0	3.402802265721089	49.306029580385051
Chaillevois	02155	02	0	0	3.524502825104441	49.512297639020495
Chalandry	02156	02	0	0	3.642507389371509	49.677086010718568
Chambry	02157	02	0	0	3.65526228952054	49.591647638467222
Chamouille	02158	02	0	0	3.666175594810034	49.473853367991985
Champs	02159	02	0	0	3.252729322498873	49.541028814743704
Chaourse	02160	02	0	0	3.997540477752296	49.70434769890683
La Chapelle-Monthodon	02161	02	0	0	3.635775610668011	49.022714476604492
La Chapelle-sur-Chézy	02162	02	0	0	3.376801241125194	48.945573939319161
Charly-sur-Marne	02163	02	0	0	3.28550506672993	48.977299542969746
Le Charmel	02164	02	0	0	3.549225037373867	49.11305808069708
Charmes	02165	02	0	0	3.377833655683396	49.65123819687112
Chartèves	02166	02	0	0	3.505021186585973	49.074588817767548
Chassemy	02167	02	0	0	3.506629382388914	49.379349405145163
Château-Thierry	02168	02	0	0	3.403521402703539	49.046199276701351
Châtillon-lès-Sons	02169	02	0	0	3.683753268209606	49.758629359003969
Châtillon-sur-Oise	02170	02	0	0	3.420510242887145	49.792166652391153
Chaudardes	02171	02	0	0	3.791799817803048	49.391302006126004
Chaudun	02172	02	0	0	3.264013399233346	49.318098823621625
Chauny	02173	02	0	0	3.219903900037593	49.615681955933226
Chavignon	02174	02	0	0	3.521405143713289	49.479056711354545
Chavigny	02175	02	0	0	3.304521107987218	49.424969325927947
Chavonne	02176	02	0	0	3.570234348855374	49.404234588703588
Chérêt	02177	02	0	0	3.684654998074761	49.515094239153541
Chermizy-Ailles	02178	02	0	0	3.7254039300947	49.468120420667148
Chéry-Chartreuve	02179	02	0	0	3.614004550114534	49.262888518190216
Chéry-lès-Pouilly	02180	02	0	0	3.604888253073979	49.657509712212168
Chéry-lès-Rozoy	02181	02	0	0	4.09071945380968	49.720622120954836
Chevennes	02182	02	0	0	3.731715715809039	49.814955244524988
Chevregny	02183	02	0	0	3.59167862972867	49.472442449610739
Chevresis-Monceau	02184	02	0	0	3.571356562646089	49.753817056213762
Chézy-en-Orxois	02185	02	0	0	3.182199298662133	49.124064080532392
Chézy-sur-Marne	02186	02	0	0	3.367543493768102	48.987866946493881
Chierry	02187	02	0	0	3.429450905177583	49.038915944168252
Chigny	02188	02	0	0	3.770760206104411	49.918030830390762
Chivres-en-Laonnois	02189	02	0	0	3.842583072715333	49.63362921698986
Chivres-Val	02190	02	0	0	3.435170997428673	49.39490834037948
Chivy-lès-Étouvelles	02191	02	0	0	3.58403616532832	49.528202946699039
Chouy	02192	02	0	0	3.248347139888045	49.205760369627065
Cierges	02193	02	0	0	3.599164156984378	49.16766512511429
Cilly	02194	02	0	0	3.83182265790674	49.737940990421137
Ciry-Salsogne	02195	02	0	0	3.462422526433022	49.362447758676126
Clacy-et-Thierret	02196	02	0	0	3.570409176913724	49.544444887599425
Clairfontaine	02197	02	0	0	3.984835860117085	49.980275969986444
Clamecy	02198	02	0	0	3.361040449418471	49.428409238771096
Clastres	02199	02	0	0	3.231552202150937	49.74505299779409
Clermont-les-Fermes	02200	02	0	0	3.938664574204667	49.667074072709759
Cuvres-et-Valsery	02201	02	0	0	3.155445524675872	49.33896223018548
Coincy	02203	02	0	0	3.422239613888712	49.161222910525986
Coingt	02204	02	0	0	4.090865329914661	49.792505750749974
Colligis-Crandelain	02205	02	0	0	3.639993457863518	49.47579207311847
Colonfay	02206	02	0	0	3.712880085473452	49.858191189807854
Commenchon	02207	02	0	0	3.157741742974261	49.640041086826933
Concevreux	02208	02	0	0	3.788825818402735	49.376939056552594
Condé-en-Brie	02209	02	0	0	3.56174200191785	49.004200210454812
Condé-sur-Aisne	02210	02	0	0	3.468253877252767	49.398380243786541
Condé-sur-Suippe	02211	02	0	0	3.950692852980344	49.419821229427988
Condren	02212	02	0	0	3.280845894961189	49.631731582535195
Connigis	02213	02	0	0	3.53058280497436	49.031318211597707
Contescourt	02214	02	0	0	3.230380073113468	49.792673952130492
Corbeny	02215	02	0	0	3.823226732141405	49.462102279842554
Corcy	02216	02	0	0	3.211499528970553	49.254376761605286
Coucy-le-Château-Auffrique	02217	02	0	0	3.323031440682547	49.520191517636086
Coucy-lès-Eppes	02218	02	0	0	3.769416379080624	49.552333584518294
Coucy-la-Ville	02219	02	0	0	3.330020286501262	49.533653526767118
Coulonges-Cohan	02220	02	0	0	3.636590871032556	49.200738655165154
Coupru	02221	02	0	0	3.272127115283296	49.031282845939238
Courbes	02222	02	0	0	3.451477295300193	49.684234735810854
Courboin	02223	02	0	0	3.504234626717495	48.993664940769783
Courcelles-sur-Vesle	02224	02	0	0	3.57225035136376	49.337707206190665
Courchamps	02225	02	0	0	3.264338920270005	49.113122401351895
Courmelles	02226	02	0	0	3.312303533664998	49.344950953261446
Courmont	02227	02	0	0	3.57564665493153	49.14889901010519
Courtemont-Varennes	02228	02	0	0	3.541963441902083	49.073528754807676
Courtrizy-et-Fussigny	02229	02	0	0	3.788257709095372	49.519857697294754
Couvrelles	02230	02	0	0	3.488340964605341	49.338075449116722
Couvron-et-Aumencourt	02231	02	0	0	3.516149428123281	49.642642327694269
Coyolles	02232	02	0	0	3.043930480952202	49.233877500187468
Cramaille	02233	02	0	0	3.454369345548058	49.229433372438493
Craonne	02234	02	0	0	3.787033149190983	49.439871992057626
Craonnelle	02235	02	0	0	3.770359641863549	49.430990748970451
Crécy-au-Mont	02236	02	0	0	3.324207853680686	49.487833587911645
Crécy-sur-Serre	02237	02	0	0	3.621977503404331	49.696961386162123
Crépy	02238	02	0	0	3.514378082563951	49.604008535324652
Crézancy	02239	02	0	0	3.510239054307662	49.048490916353472
Croix-Fonsomme	02240	02	0	0	3.402091649598057	49.920696999678043
La Croix-sur-Ourcq	02241	02	0	0	3.353744359829637	49.168636166075821
Crouttes-sur-Marne	02242	02	0	0	3.240438102825347	48.980096012868671
Crouy	02243	02	0	0	3.359480521564699	49.402347723139478
Crupilly	02244	02	0	0	3.755563743368352	49.925312359643385
Cuffies	02245	02	0	0	3.319555426381428	49.40515628080675
Cugny	02246	02	0	0	3.153792779030228	49.707438533165757
Cuirieux	02248	02	0	0	3.814272456508225	49.680550821314583
Cuiry-Housse	02249	02	0	0	3.492056226201633	49.294911465519164
Cuiry-lès-Chaudardes	02250	02	0	0	3.769688008963083	49.38605136872421
Cuiry-lès-Iviers	02251	02	0	0	4.109629898782917	49.761786022626708
Cuissy-et-Geny	02252	02	0	0	3.701164603213437	49.409838779346678
Cuisy-en-Almont	02253	02	0	0	3.245232307338308	49.417014551558744
Cutry	02254	02	0	0	3.181610772195083	49.347015799169391
Cys-la-Commune	02255	02	0	0	3.572849115683469	49.391638138257001
Dagny-Lambercy	02256	02	0	0	4.043243341177083	49.771357732825912
Dallon	02257	02	0	0	3.241618551918863	49.821401837431743
Dammard	02258	02	0	0	3.197347099899128	49.144719204883884
Dampleux	02259	02	0	0	3.153785915438442	49.243676350256251
Danizy	02260	02	0	0	3.391776494723719	49.664672946342563
Dercy	02261	02	0	0	3.685792219615369	49.703807155037957
Deuillet	02262	02	0	0	3.361080258576167	49.630621130721792
Dhuizel	02263	02	0	0	3.617977158016245	49.365348293108198
Dizy-le-Gros	02264	02	0	0	4.022372740552077	49.629554082611087
Dohis	02265	02	0	0	4.135980014974457	49.761543290960446
Dolignon	02266	02	0	0	4.084019025763421	49.731465064124144
Dommiers	02267	02	0	0	3.209047302368531	49.32719561483102
Domptin	02268	02	0	0	3.277515260559417	49.015984332591785
Dorengt	02269	02	0	0	3.683874331380365	49.975140551834613
Douchy	02270	02	0	0	3.134627031383837	49.795512532862745
Dravegny	02271	02	0	0	3.638328765620766	49.230397819197691
Droizy	02272	02	0	0	3.392960237699478	49.277295524794482
Dury	02273	02	0	0	3.128962074384924	49.750595676844554
Ébouleau	02274	02	0	0	3.875076823832995	49.67293982689408
Effry	02275	02	0	0	3.9837599349764	49.924588105378902
Englancourt	02276	02	0	0	3.801351831900194	49.916935844873336
Épagny	02277	02	0	0	3.241309718229457	49.46196265699551
Éparcy	02278	02	0	0	4.060625895259406	49.873635145124972
Épaux-Bézu	02279	02	0	0	3.347855335270896	49.108414298029274
Épieds	02280	02	0	0	3.445073215123488	49.106295584810169
L'Épine-aux-Bois	02281	02	0	0	3.448636873894932	48.885074363439031
Eppes	02282	02	0	0	3.73771155975625	49.557024064340055
Erlon	02283	02	0	0	3.713862734612857	49.729703897788056
Erloy	02284	02	0	0	3.829116106856656	49.913157339984743
Esquéhéries	02286	02	0	0	3.746679329025856	49.983756350208203
Essigny-le-Grand	02287	02	0	0	3.277478213528958	49.776403772704356
Essigny-le-Petit	02288	02	0	0	3.36576318455228	49.899251405255733
Essises	02289	02	0	0	3.419260090529977	48.96251877683072
Essômes-sur-Marne	02290	02	0	0	3.374673280008857	49.029208308246687
Estrées	02291	02	0	0	3.28826869732254	49.967728618208966
Étampes-sur-Marne	02292	02	0	0	3.419840982224509	49.034454005914277
Étaves-et-Bocquiaux	02293	02	0	0	3.453729335519451	49.938482359364841
Étouvelles	02294	02	0	0	3.581183405982287	49.520127980211406
Étréaupont	02295	02	0	0	3.915197849319923	49.903559628304222
Étreillers	02296	02	0	0	3.161101978679442	49.828721909745781
Étrépilly	02297	02	0	0	3.339485296491671	49.085060926128605
Étreux	02298	02	0	0	3.656262339154086	49.99415503668439
Évergnicourt	02299	02	0	0	4.042109531031263	49.443338580076656
Faucoucourt	02301	02	0	0	3.465331597556133	49.532311271107361
Faverolles	02302	02	0	0	3.175688052672256	49.22386849184236
Fayet	02303	02	0	0	3.251568822336977	49.868097764488205
La Fère	02304	02	0	0	3.365454647018951	49.662059116538543
Fère-en-Tardenois	02305	02	0	0	3.517215917927433	49.199512090219564
La Ferté-Chevresis	02306	02	0	0	3.557303188038705	49.736810432453204
La Ferté-Milon	02307	02	0	0	3.123421351319488	49.1780829990741
Fesmy-le-Sart	02308	02	0	0	3.677795272972004	50.041643433849757
Festieux	02309	02	0	0	3.753774050100961	49.521874432790931
Fieulaine	02310	02	0	0	3.44920562395885	49.89897326035149
Filain	02311	02	0	0	3.555674957506926	49.459130960395278
La Flamengrie	02312	02	0	0	3.919793856359456	50.004137023996591
Flavigny-le-Grand-et-Beaurain	02313	02	0	0	3.664666512136973	49.890804748802694
Flavy-le-Martel	02315	02	0	0	3.192610873126323	49.71367300750326
Fleury	02316	02	0	0	3.156575648735777	49.25805645927224
Fluquières	02317	02	0	0	3.152693941897968	49.80357713875312
Folembray	02318	02	0	0	3.28864096905654	49.541847409016547
Fonsomme	02319	02	0	0	3.39916839007725	49.902740211147929
Fontaine-lès-Clercs	02320	02	0	0	3.222111684094301	49.806165791556154
Fontaine-lès-Vervins	02321	02	0	0	3.901791547328335	49.853348735884957
Fontaine-Notre-Dame	02322	02	0	0	3.42822442804126	49.884675086683949
Fontaine-Uterte	02323	02	0	0	3.37009828610243	49.921696307885526
Fontenelle	02324	02	0	0	3.865890061603575	50.030578872163638
Fontenelle-en-Brie	02325	02	0	0	3.477577746999876	48.918236545912805
Fontenoy	02326	02	0	0	3.198352333047719	49.407213332498515
Foreste	02327	02	0	0	3.098567467177807	49.809023414217641
Fossoy	02328	02	0	0	3.482881093286353	49.048604004033869
Fourdrain	02329	02	0	0	3.471580370929974	49.611371370091845
Francilly-Selency	02330	02	0	0	3.22370438134817	49.852879727490205
Franqueville	02331	02	0	0	3.809392845062022	49.809972424291431
Fresnes-en-Tardenois	02332	02	0	0	3.556430105150218	49.146292088621017
Fresnes	02333	02	0	0	3.370212935418582	49.55420778887715
Fresnoy-le-Grand	02334	02	0	0	3.417616646447706	49.947593800548127
Fressancourt	02335	02	0	0	3.426116139357864	49.63220780098171
Frières-Faillouël	02336	02	0	0	3.24237207649269	49.687526483747
Froidestrées	02337	02	0	0	3.906132893553291	49.941358017571233
Froidmont-Cohartille	02338	02	0	0	3.709107048788513	49.686600622163169
Gandelu	02339	02	0	0	3.183464177138804	49.094391541193851
Gauchy	02340	02	0	0	3.286078943488461	49.825797768510903
Gercy	02341	02	0	0	3.867774196354171	49.814063529795199
Gergny	02342	02	0	0	3.934865939981663	49.914191281505076
Germaine	02343	02	0	0	3.115232813336961	49.81170407068759
Gernicourt	02344	02	0	0	3.873191321736984	49.39973083763897
Gibercourt	02345	02	0	0	3.284195401565736	49.736855104183121
Gizy	02346	02	0	0	3.774291613474057	49.600832747768365
Gland	02347	02	0	0	3.462354536396582	49.047785585978005
Glennes	02348	02	0	0	3.714179206547827	49.354930238239305
Goudelancourt-lès-Berrieux	02349	02	0	0	3.848623702977448	49.496980730915567
Goudelancourt-lès-Pierrepont	02350	02	0	0	3.854234343166366	49.668594852554016
Goussancourt	02351	02	0	0	3.667703714619281	49.166405492506286
Gouy	02352	02	0	0	3.255017393537274	50.001935111063432
Grandlup-et-Fay	02353	02	0	0	3.736391664294113	49.657683250178195
Grandrieux	02354	02	0	0	4.185198068470696	49.730522625677075
Gricourt	02355	02	0	0	3.244718524443334	49.888773681962441
Grisolles	02356	02	0	0	3.357665086592035	49.140753228376632
Gronard	02357	02	0	0	3.884076556847027	49.793281426071829
Grougis	02358	02	0	0	3.531724620676598	49.943558007540773
Grugies	02359	02	0	0	3.266571203020609	49.81326414601763
Guignicourt	02360	02	0	0	3.966133898573205	49.434979908160848
Guise	02361	02	0	0	3.627234666726821	49.899986110828472
Guivry	02362	02	0	0	3.119012823844022	49.646375336889882
Guny	02363	02	0	0	3.267803494283665	49.518528580421957
Guyencourt	02364	02	0	0	3.836684489242137	49.356841139531184
Hannapes	02366	02	0	0	3.625334356306614	49.971860472743565
Happencourt	02367	02	0	0	3.187301504757413	49.77747409518026
Haramont	02368	02	0	0	3.061829905820294	49.27791942553575
Harcigny	02369	02	0	0	3.981287306810949	49.796132089490264
Hargicourt	02370	02	0	0	3.179627190337335	49.962546740708817
Harly	02371	02	0	0	3.320904132423836	49.842780768903324
Hartennes-et-Taux	02372	02	0	0	3.353078318128081	49.272024993963754
Hary	02373	02	0	0	3.9325658403384	49.78842781249265
Lehaucourt	02374	02	0	0	3.279651758427335	49.920139959939668
Hautevesnes	02375	02	0	0	3.231447888192239	49.10869463802856
Hauteville	02376	02	0	0	3.52270054760994	49.87801899007389
Haution	02377	02	0	0	3.840865073167906	49.866361240344517
La Hérie	02378	02	0	0	4.048319705960381	49.883624007851118
Le Hérie-la-Viéville	02379	02	0	0	3.644337841925076	49.822635411354646
Hinacourt	02380	02	0	0	3.295332517669141	49.744915107270515
Hirson	02381	02	0	0	4.083894621213342	49.921944900384752
Holnon	02382	02	0	0	3.212611138115269	49.858289775866218
Homblières	02383	02	0	0	3.36540921768226	49.849842799249522
Houry	02384	02	0	0	3.849203300957337	49.782747280647747
Housset	02385	02	0	0	3.707827013202647	49.794431563723407
Iron	02386	02	0	0	3.65992979876421	49.954611549448373
Itancourt	02387	02	0	0	3.344277889403894	49.806780660143978
Iviers	02388	02	0	0	4.143416302167537	49.783937581861771
Jaulgonne	02389	02	0	0	3.533900183244201	49.087951287984829
Jeancourt	02390	02	0	0	3.146107778730252	49.92755877140096
Jeantes	02391	02	0	0	4.055007597411609	49.803603326713386
Joncourt	02392	02	0	0	3.299340781832214	49.956024704157464
Jouaignes	02393	02	0	0	3.536074933872752	49.298319864514738
Jumencourt	02395	02	0	0	3.353321229436772	49.508423503727286
Jumigny	02396	02	0	0	3.71771914764314	49.411539457879769
Jussy	02397	02	0	0	3.231438412186427	49.719895059223944
Juvigny	02398	02	0	0	3.318439118729519	49.447403783361693
Juvincourt-et-Damary	02399	02	0	0	3.891903282995735	49.446335770625467
Laffaux	02400	02	0	0	3.425977066412403	49.448870888619403
Laigny	02401	02	0	0	3.853237683830993	49.858189721403512
Lanchy	02402	02	0	0	3.074993192206382	49.827008384950425
Landifay-et-Bertaignemont	02403	02	0	0	3.606770872224347	49.816538918053588
Landouzy-la-Cour	02404	02	0	0	3.983660616357151	49.847326075552338
Landouzy-la-Ville	02405	02	0	0	4.047858474601543	49.861167228340754
Landricourt	02406	02	0	0	3.367122644808025	49.508382504254762
Laniscourt	02407	02	0	0	3.542834821831804	49.549064945453061
Laon	02408	02	1	0	3.623119133795701	49.563058682299669
Lappion	02409	02	0	0	3.963851451496192	49.607565010320769
Largny-sur-Automne	02410	02	0	0	3.041205601812024	49.259948973489379
Latilly	02411	02	0	0	3.30978350787694	49.154372199129313
Launoy	02412	02	0	0	3.401099329316342	49.2637841573016
Laval-en-Laonnois	02413	02	0	0	3.596149285661637	49.501181474698491
Lavaqueresse	02414	02	0	0	3.709973336124144	49.948941676276931
Laversine	02415	02	0	0	3.170618958359859	49.351526262792909
Lemé	02416	02	0	0	3.763997498585563	49.838116912422969
Lempire	02417	02	0	0	3.172765457157092	49.992198378300216
Lerzy	02418	02	0	0	3.888102232610882	49.945083541129655
Leschelle	02419	02	0	0	3.769979503778486	49.958460139940804
Lesdins	02420	02	0	0	3.326805820967273	49.896666771412569
Lesges	02421	02	0	0	3.507289652629507	49.306534788725408
Lesquielles-Saint-Germain	02422	02	0	0	3.620663736350524	49.931461200257665
Leuilly-sous-Coucy	02423	02	0	0	3.358634940130304	49.478748947967638
Leury	02424	02	0	0	3.336254058995041	49.431177075562161
Leuze	02425	02	0	0	4.161596496059281	49.851153827127298
Levergies	02426	02	0	0	3.313086813874357	49.927245339537301
Lhuys	02427	02	0	0	3.555124760970231	49.280254460788932
Licy-Clignon	02428	02	0	0	3.273859764248315	49.100513495255285
Lierval	02429	02	0	0	3.616643333327254	49.484002237922745
Liesse-Notre-Dame	02430	02	0	0	3.804849073268483	49.609620959972879
Liez	02431	02	0	0	3.2908664966941	49.691014463603416
Limé	02432	02	0	0	3.548693834582858	49.321635775160502
Lislet	02433	02	0	0	4.022117576260269	49.68617151302854
Lizy	02434	02	0	0	3.481723966004151	49.51337386244748
Logny-lès-Aubenton	02435	02	0	0	4.211076983648169	49.828210817173115
Longpont	02438	02	0	0	3.219816192514193	49.272341320112567
Longueval-Barbonval	02439	02	0	0	3.652315942497851	49.359774466273841
Lor	02440	02	0	0	4.049399571070417	49.530462417007662
Louâtre	02441	02	0	0	3.245846489501625	49.25700859012305
Loupeigne	02442	02	0	0	3.535543556360561	49.247080372801662
Lucy-le-Bocage	02443	02	0	0	3.27909975988536	49.056443598671557
Lugny	02444	02	0	0	3.810310938816952	49.780316428307444
Luzoir	02445	02	0	0	3.961515795556145	49.925663363141055
Ly-Fontaine	02446	02	0	0	3.307751789433409	49.735000867899338
Maast-et-Violaine	02447	02	0	0	3.449347290054999	49.283391520631433
Mâchecourt	02448	02	0	0	3.840154745777151	49.654314865909775
Macogny	02449	02	0	0	3.228959049807827	49.165341839187185
Macquigny	02450	02	0	0	3.551970743333558	49.885077170196702
Magny-la-Fosse	02451	02	0	0	3.274159053564684	49.933626825182067
Maissemy	02452	02	0	0	3.187727007573353	49.893366169419565
Maizy	02453	02	0	0	3.73374994042703	49.376386873530969
La Malmaison	02454	02	0	0	3.981456379429689	49.515751766230863
Malzy	02455	02	0	0	3.727479730308429	49.907515834148178
Manicamp	02456	02	0	0	3.169968639743566	49.571728292222851
Marchais	02457	02	0	0	3.816879442060062	49.583478627251438
Marchais-en-Brie	02458	02	0	0	3.484082244130879	48.884036986983944
Marcy	02459	02	0	0	3.404318567068968	49.850618560511037
Marcy-sous-Marle	02460	02	0	0	3.736168955327294	49.738556522923218
Marest-Dampcourt	02461	02	0	0	3.152089692685231	49.60050898208997
Mareuil-en-Dôle	02462	02	0	0	3.556073025785802	49.240694412847368
Marfontaine	02463	02	0	0	3.769039418107373	49.803944188725367
Margival	02464	02	0	0	3.401051281308238	49.43457503972634
Marigny-en-Orxois	02465	02	0	0	3.227130585222998	49.061048857567471
Marizy-Sainte-Geneviève	02466	02	0	0	3.201605439801833	49.182472740342263
Marizy-Saint-Mard	02467	02	0	0	3.223541012382402	49.180635936878907
Marle	02468	02	0	0	3.770853425830398	49.740139082707401
Marly-Gomont	02469	02	0	0	3.78863702605277	49.904441567659511
Martigny	02470	02	0	0	4.136769555071099	49.859473624626332
Martigny-Courpierre	02471	02	0	0	3.680181224086731	49.489953813342204
Mauregny-en-Haye	02472	02	0	0	3.793945843033182	49.53060572604722
Mayot	02473	02	0	0	3.385151865933535	49.70423087142261
Mennessis	02474	02	0	0	3.272874982968296	49.693751776035128
Menneville	02475	02	0	0	4.008555000610872	49.419352902203244
Mennevret	02476	02	0	0	3.55583770816416	49.984771275122085
Mercin-et-Vaux	02477	02	0	0	3.276697309074019	49.375599714029974
Merlieux-et-Fouquerolles	02478	02	0	0	3.505223730394668	49.516873213552984
Merval	02479	02	0	0	3.696230599836624	49.350540358288093
Mesbrecourt-Richecourt	02480	02	0	0	3.541683191419135	49.701837951728699
Mesnil-Saint-Laurent	02481	02	0	0	3.354150936702782	49.829212873697827
Meurival	02482	02	0	0	3.761002489554327	49.357341286827094
Mézières-sur-Oise	02483	02	0	0	3.399623032867392	49.783252333783395
Mézy-Moulins	02484	02	0	0	3.519931404014526	49.060138628159542
Missy-aux-Bois	02485	02	0	0	3.250354349939045	49.337005064916951
Missy-lès-Pierrepont	02486	02	0	0	3.785833790556206	49.632211992766948
Missy-sur-Aisne	02487	02	0	0	3.43510270350809	49.386818836498918
Molain	02488	02	0	0	3.534029658862779	50.030677485512633
Molinchart	02489	02	0	0	3.540195230600664	49.560759909374845
Monampteuil	02490	02	0	0	3.572410449338067	49.476130164697345
Monceau-le-Neuf-et-Faucouzy	02491	02	0	0	3.615926743993798	49.769772918417765
Monceau-lès-Leups	02492	02	0	0	3.491509085855866	49.670600985056133
Monceau-le-Waast	02493	02	0	0	3.71370780792657	49.619177086422518
Monceau-sur-Oise	02494	02	0	0	3.695403258684149	49.901414037996481
Mondrepuis	02495	02	0	0	4.055534434562846	49.963517166031174
Monnes	02496	02	0	0	3.219289672198216	49.148277538006923
Mons-en-Laonnois	02497	02	0	0	3.553758611003767	49.53733223859038
Montaigu	02498	02	0	0	3.829930488647676	49.535757423257586
Montbavin	02499	02	0	0	3.528745179707121	49.522165395593881
Montbrehain	02500	02	0	0	3.350928864896418	49.966666778295121
Montchâlons	02501	02	0	0	3.727418154195078	49.513047748403515
Montcornet	02502	02	0	0	4.016756584363148	49.695202623011276
Mont-d'Origny	02503	02	0	0	3.50011520095628	49.8430766469113
Montescourt-Lizerolles	02504	02	0	0	3.257864591246041	49.738710681370435
Montfaucon	02505	02	0	0	3.430029037309697	48.943596292031728
Montgobert	02506	02	0	0	3.148476888016249	49.307509023023201
Montgru-Saint-Hilaire	02507	02	0	0	3.329196288161084	49.189383988387803
Monthenault	02508	02	0	0	3.666350178773159	49.487334285935795
Monthiers	02509	02	0	0	3.29852244796814	49.103152161461374
Monthurel	02510	02	0	0	3.546906824223452	49.023152174570569
Montigny-en-Arrouaise	02511	02	0	0	3.475695887601991	49.906059713333605
Montigny-l'Allier	02512	02	0	0	3.102719140717793	49.111570786716349
Montigny-le-Franc	02513	02	0	0	3.907190640544236	49.687981083826614
Montigny-Lengrain	02514	02	0	0	3.09498433045244	49.374980099846745
Montigny-lès-Condé	02515	02	0	0	3.567012604142837	48.986190843820445
Montigny-sous-Marle	02516	02	0	0	3.791773569586373	49.748091737945508
Montigny-sur-Crécy	02517	02	0	0	3.584792586263272	49.71601532918865
Montlevon	02518	02	0	0	3.539472876317592	48.965635244920357
Montloué	02519	02	0	0	4.070342141353828	49.674074614381375
Mont-Notre-Dame	02520	02	0	0	3.584131698907531	49.293602117064196
Montreuil-aux-Lions	02521	02	0	0	3.195511760367805	49.021541021782845
Mont-Saint-Jean	02522	02	0	0	4.207386623887681	49.78961081662117
Mont-Saint-Martin	02523	02	0	0	3.640347116801894	49.282529334472841
Mont-Saint-Père	02524	02	0	0	3.489975239253395	49.075550251217059
Morcourt	02525	02	0	0	3.322503243126835	49.876016323399789
Morgny-en-Thiérache	02526	02	0	0	4.077675272274713	49.759377070808426
Morsain	02527	02	0	0	3.17922759961801	49.453082563453215
Mortefontaine	02528	02	0	0	3.075648857569675	49.331847325868566
Mortiers	02529	02	0	0	3.667559848977118	49.686835605005029
Moulins	02530	02	0	0	3.684778389999585	49.420718905166268
Moussy-Verneuil	02531	02	0	0	3.633734842501777	49.415603820564215
Moÿ-de-l'Aisne	02532	02	0	0	3.361942677336703	49.752821903263964
Muret-et-Crouttes	02533	02	0	0	3.416375553915371	49.284408725243985
Muscourt	02534	02	0	0	3.747333139174665	49.363718985351461
Nampcelles-la-Cour	02535	02	0	0	4.003139659834133	49.777984014445494
Nampteuil-sous-Muret	02536	02	0	0	3.424753510701058	49.300560701985397
Nanteuil-la-Fosse	02537	02	0	0	3.453436982313049	49.436187822017665
Nanteuil-Notre-Dame	02538	02	0	0	3.408772076897169	49.191837399528048
Nauroy	02539	02	0	0	3.254774594828352	49.953430800412654
Nesles-la-Montagne	02540	02	0	0	3.426553064583217	49.019144088221239
Neufchâtel-sur-Aisne	02541	02	0	0	4.032245246187768	49.43263652820697
Neuflieux	02542	02	0	0	3.16044727931923	49.620268113160407
Neuilly-Saint-Front	02543	02	0	0	3.263247831379775	49.167968941949994
Neuve-Maison	02544	02	0	0	4.032582865715024	49.930474208961598
La Neuville-Bosmont	02545	02	0	0	3.839727460994988	49.712727080602413
La Neuville-en-Beine	02546	02	0	0	3.15092905483736	49.675992995284787
La Neuville-Housset	02547	02	0	0	3.728605871649606	49.791613787992127
La Neuville-lès-Dorengt	02548	02	0	0	3.675541656365977	49.976983345699651
Neuville-Saint-Amand	02549	02	0	0	3.333295335397501	49.82567797019486
Neuville-sur-Ailette	02550	02	0	0	3.699190310662256	49.46737572627557
Neuville-sur-Margival	02551	02	0	0	3.399812684401917	49.452555291843176
Neuvillette	02552	02	0	0	3.482157734156131	49.853929598012705
Nizy-le-Comte	02553	02	0	0	4.054334180888239	49.569066777622922
Nogentel	02554	02	0	0	3.401923795459552	49.016531473758157
Nogent-l'Artaud	02555	02	0	0	3.323675752146565	48.964613343522501
Noircourt	02556	02	0	0	4.092378976073351	49.668486841259472
Noroy-sur-Ourcq	02557	02	0	0	3.214045230241938	49.205826176163832
Le Nouvion-en-Thiérache	02558	02	0	0	3.784815612086516	50.017651415274578
Nouvion-et-Catillon	02559	02	0	0	3.484875656721805	49.701178904908026
Nouvion-le-Comte	02560	02	0	0	3.462677962459043	49.697671082544524
Nouvion-le-Vineux	02561	02	0	0	3.611349781680578	49.502903310452957
Nouvron-Vingré	02562	02	0	0	3.198435410584656	49.428784972596894
Noyales	02563	02	0	0	3.554897916549448	49.89853917993797
Noyant-et-Aconin	02564	02	0	0	3.334234335191879	49.332307615646066
uilly	02565	02	0	0	3.688503194729287	49.390136278840735
Ognes	02566	02	0	0	3.193609232492654	49.611233548006233
Ohis	02567	02	0	0	4.008910131838915	49.929773398515977
Oigny-en-Valois	02568	02	0	0	3.137244451167621	49.219423348703124
Oisy	02569	02	0	0	3.669156010271932	50.021032203713936
Ollezy	02570	02	0	0	3.14416751721463	49.733507270697054
Omissy	02571	02	0	0	3.311393522832799	49.877841846528334
Orainville	02572	02	0	0	4.021565106442647	49.380590492873964
Orgeval	02573	02	0	0	3.703880493356938	49.507794057152935
Origny-en-Thiérache	02574	02	0	0	4.017950640222147	49.894661640445854
Origny-Sainte-Benoite	02575	02	0	0	3.488941603323883	49.836833080007118
Osly-Courtil	02576	02	0	0	3.225877485442679	49.401772056029529
Ostel	02577	02	0	0	3.57051299198479	49.42940095706814
Oulches-la-Vallée-Foulon	02578	02	0	0	3.745529262376978	49.42934850542958
Oulchy-la-Ville	02579	02	0	0	3.34993491848589	49.213599436527247
Oulchy-le-Château	02580	02	0	0	3.36771058196468	49.204556243194482
Paars	02581	02	0	0	3.601032196610884	49.328578186475141
Paissy	02582	02	0	0	3.701372605348442	49.425118145367648
Pancy-Courtecon	02583	02	0	0	3.653762957619001	49.47392097431716
Papleux	02584	02	0	0	3.885237371611075	50.020560092654179
Parcy-et-Tigny	02585	02	0	0	3.335259377047311	49.278368569040502
Parfondeval	02586	02	0	0	4.159087970360584	49.740658423714919
Parfondru	02587	02	0	0	3.711054326057608	49.527524909632263
Pargnan	02588	02	0	0	3.692778973225105	49.400898396663727
Pargny-Filain	02589	02	0	0	3.544692098985681	49.463674843880852
Pargny-la-Dhuys	02590	02	0	0	3.554361449544089	48.952977728275847
Pargny-les-Bois	02591	02	0	0	3.623712829615188	49.725706173588087
Parpeville	02592	02	0	0	3.545343665417753	49.785383150344835
Pasly	02593	02	0	0	3.296119293751172	49.401620536898712
Passy-en-Valois	02594	02	0	0	3.194690654834343	49.167200240774932
Passy-sur-Marne	02595	02	0	0	3.570574393104011	49.061707159736763
Pavant	02596	02	0	0	3.285371769935847	48.953020456703918
Perles	02597	02	0	0	3.656009881795711	49.325595346856666
Pernant	02598	02	0	0	3.236788450479831	49.378381037487273
Pierremande	02599	02	0	0	3.250116003405102	49.571589644347775
Pierrepont	02600	02	0	0	3.791700366054195	49.653741304774002
Pignicourt	02601	02	0	0	4.030525520128345	49.415572235045964
Pinon	02602	02	0	0	3.4469985026123	49.488341715383022
Pithon	02604	02	0	0	3.097073379665204	49.753320694520575
Pleine-Selve	02605	02	0	0	3.527360457486358	49.79085301301243
Le Plessier-Huleu	02606	02	0	0	3.344613506139519	49.238787065858951
Ploisy	02607	02	0	0	3.291590723855386	49.331519146175495
Plomion	02608	02	0	0	4.017620734629988	49.808413402683172
Ployart-et-Vaurseine	02609	02	0	0	3.745009389566347	49.48867389789104
Pommiers	02610	02	0	0	3.269903748075343	49.392693390578273
Pont-Arcy	02612	02	0	0	3.629349419427224	49.394952877678207
Pontavert	02613	02	0	0	3.819596003548715	49.407296847207554
Pontru	02614	02	0	0	3.216974701801616	49.904097645426923
Pontruet	02615	02	0	0	3.230907663138964	49.909462020802209
Pont-Saint-Mard	02616	02	0	0	3.284249257767496	49.496921421981931
Pouilly-sur-Serre	02617	02	0	0	3.58855723206563	49.68185183417738
Prémont	02618	02	0	0	3.394459750439037	50.013242210242105
Prémontré	02619	02	0	0	3.414307977491779	49.540584696249546
Presles-et-Boves	02620	02	0	0	3.559088920027329	49.392601386255301
Presles-et-Thierny	02621	02	0	0	3.626584147815942	49.507319356282792
Priez	02622	02	0	0	3.263092510923542	49.137400779933017
Prisces	02623	02	0	0	3.861630038209999	49.779066095682523
Proisy	02624	02	0	0	3.73985441640792	49.897559655933939
Proix	02625	02	0	0	3.567433972223061	49.900278318758509
Prouvais	02626	02	0	0	3.974946908602977	49.463672754174709
Proviseux-et-Plesnoy	02627	02	0	0	4.009453257480401	49.465187832950555
Puiseux-en-Retz	02628	02	0	0	3.129205175983481	49.297642922427094
Puisieux-et-Clanlieu	02629	02	0	0	3.676691984357774	49.853905041354459
Quierzy	02631	02	0	0	3.143710869718413	49.570863539728109
Quincy-Basse	02632	02	0	0	3.378216646413074	49.515538320989272
Quincy-sous-le-Mont	02633	02	0	0	3.55265559919651	49.306335690138482
Raillimont	02634	02	0	0	4.154118627958561	49.704761280220893
Ramicourt	02635	02	0	0	3.329988116469304	49.958640700206381
Regny	02636	02	0	0	3.429161354270065	49.830769018323792
Remaucourt	02637	02	0	0	3.340712282560388	49.896628801131129
Remies	02638	02	0	0	3.520665615367609	49.678566942956984
Remigny	02639	02	0	0	3.288258166104181	49.719773829918616
Renansart	02640	02	0	0	3.464389067122389	49.733605968253585
Renneval	02641	02	0	0	4.048165776506213	49.740764616008349
Résigny	02642	02	0	0	4.207522164039931	49.736593605003108
Ressons-le-Long	02643	02	0	0	3.148709909678968	49.388408833965045
Retheuil	02644	02	0	0	3.009626194867799	49.321982632587989
Reuilly-Sauvigny	02645	02	0	0	3.574599447278341	49.054494573422943
Révillon	02646	02	0	0	3.700577968445844	49.366695684182126
Ribeauville	02647	02	0	0	3.585762989028301	50.043015846608199
Ribemont	02648	02	0	0	3.458012845896191	49.795625397382558
Rocourt-Saint-Martin	02649	02	0	0	3.387893415800092	49.151448623357105
Rocquigny	02650	02	0	0	3.981488406552891	50.023420027852545
Rogécourt	02651	02	0	0	3.426287923553017	49.652875206932983
Rogny	02652	02	0	0	3.810125884694892	49.768637104305085
Romeny-sur-Marne	02653	02	0	0	3.336042648010888	48.976269382731886
Romery	02654	02	0	0	3.724544781968564	49.896752999504493
Ronchères	02655	02	0	0	3.601634613810864	49.144276421893956
Roucy	02656	02	0	0	3.814909484292965	49.372271544112955
Rougeries	02657	02	0	0	3.787084287818584	49.803829105603612
Roupy	02658	02	0	0	3.183264846893169	49.812519277662616
Rouvroy	02659	02	0	0	3.318198546802608	49.854466838125781
Rouvroy-sur-Serre	02660	02	0	0	4.176634271495661	49.719822340894552
Royaucourt-et-Chailvet	02661	02	0	0	3.534155090223547	49.511356757964947
Rozet-Saint-Albin	02662	02	0	0	3.297674479539404	49.193961199163972
Rozières-sur-Crise	02663	02	0	0	3.354828730189254	49.326855399842017
Rozoy-Bellevalle	02664	02	0	0	3.455785498407842	48.92281784694061
Grand-Rozoy	02665	02	0	0	3.384395394556159	49.234171803582633
Rozoy-sur-Serre	02666	02	0	0	4.127876970134202	49.708601701288622
Saconin-et-Breuil	02667	02	0	0	3.247693835546281	49.35588732843182
Sains-Richaumont	02668	02	0	0	3.709626427982644	49.824070143347896
Saint-Agnan	02669	02	0	0	3.594728540982218	49.020227190902844
Saint-Algis	02670	02	0	0	3.823305402691781	49.897924440920669
Saint-Aubin	02671	02	0	0	3.189079659825553	49.507892097650817
Saint-Bandry	02672	02	0	0	3.166554943247938	49.371307239092921
Saint-Christophe-à-Berry	02673	02	0	0	3.133654456184362	49.423480936933345
Saint-Clément	02674	02	0	0	4.072467137785075	49.7755968586047
Sainte-Croix	02675	02	0	0	3.779389436547905	49.48126730683807
Saint-Erme-Outre-et-Ramecourt	02676	02	0	0	3.839258614047901	49.515021634843919
Saint-Eugène	02677	02	0	0	3.530481750084559	49.02142746263479
Sainte-Geneviève	02678	02	0	0	4.071281365723476	49.718997463847082
Saint-Gengoulph	02679	02	0	0	3.217798147926649	49.119509405669298
Saint-Gobain	02680	02	0	0	3.374658547562706	49.595533219122949
Saint-Gobert	02681	02	0	0	3.816204821680307	49.801840807412681
Saint-Mard	02682	02	0	0	3.583814141828925	49.387091348669877
Saint-Martin-Rivière	02683	02	0	0	3.53974024886584	50.043227078281902
Saint-Michel	02684	02	0	0	4.132506999785939	49.917910826751935
Saint-Nicolas-aux-Bois	02685	02	0	0	3.431317497823371	49.592649280273193
Saint-Paul-aux-Bois	02686	02	0	0	3.202976824520626	49.532135169467743
Saint-Pierre-Aigle	02687	02	0	0	3.185641236689545	49.320042536866453
Saint-Pierre-lès-Franqueville	02688	02	0	0	3.823434335194873	49.819761554069167
Saint-Pierremont	02689	02	0	0	3.88146490317404	49.722316409489977
Sainte-Preuve	02690	02	0	0	3.907350127865648	49.618784307616735
Saint-Quentin	02691	02	0	0	3.286204781821122	49.848257348761933
Saint-Rémy-Blanzy	02693	02	0	0	3.310306010932024	49.241577213557228
Saint-Simon	02694	02	0	0	3.174704272416037	49.745147762233294
Saint-Thibaut	02695	02	0	0	3.61719185085326	49.299730379021788
Saint-Thomas	02696	02	0	0	3.82102820664951	49.497170765619181
Samoussy	02697	02	0	0	3.73396541284721	49.584906727050026
Sancy-les-Cheminots	02698	02	0	0	3.471328847898246	49.433423033078491
Saponay	02699	02	0	0	3.480308397256062	49.214049441663612
Saulchery	02701	02	0	0	3.307345749837581	48.974547884442586
Savy	02702	02	0	0	3.193051286479343	49.830472361794257
Seboncourt	02703	02	0	0	3.478933227358721	49.954555410457502
Selens	02704	02	0	0	3.209756056314596	49.501566920266193
La Selve	02705	02	0	0	3.997702923625774	49.570444120056727
Septmonts	02706	02	0	0	3.357635363714509	49.334937348595304
Septvaux	02707	02	0	0	3.37862038463725	49.570358245878232
Sequehart	02708	02	0	0	3.332579269072109	49.928990485270361
Serain	02709	02	0	0	3.365292489740307	50.027703728533112
Seraucourt-le-Grand	02710	02	0	0	3.212286115436394	49.780128523845299
Serches	02711	02	0	0	3.44845703089382	49.339128963180464
Sergy	02712	02	0	0	3.57053090069342	49.182189345257306
Seringes-et-Nesles	02713	02	0	0	3.540603686274983	49.205702743013376
Sermoise	02714	02	0	0	3.4501306250501	49.37328075836632
Serval	02715	02	0	0	3.685259380281435	49.353299814234134
Servais	02716	02	0	0	3.343029540840628	49.620788566037255
Séry-lès-Mézières	02717	02	0	0	3.420362480779366	49.774197957597501
Silly-la-Poterie	02718	02	0	0	3.146787758552988	49.196936603977669
Sinceny	02719	02	0	0	3.2460867380616	49.595861716909994
Sissonne	02720	02	0	0	3.89267541622955	49.570363040273875
Sissy	02721	02	0	0	3.428935020215692	49.803817098356632
Soissons	02722	02	0	0	3.3221584551587	49.380880352492781
Soize	02723	02	0	0	4.084776664664485	49.701804412572017
Sommelans	02724	02	0	0	3.293243353646768	49.138230176355052
Sommeron	02725	02	0	0	3.939717821916725	49.950986320798179
Sommette-Eaucourt	02726	02	0	0	3.11645735092183	49.739826398720346
Sons-et-Ronchères	02727	02	0	0	3.674092637815119	49.762277188676535
Sorbais	02728	02	0	0	3.894415251276902	49.908205298785987
Soucy	02729	02	0	0	3.126493566895991	49.312927602183414
Soupir	02730	02	0	0	3.596424357796021	49.405906046956567
Le Sourd	02731	02	0	0	3.749047890521434	49.860669948559035
Surfontaine	02732	02	0	0	3.46593068366716	49.75067171574311
Suzy	02733	02	0	0	3.466875653280265	49.550279639299696
Taillefontaine	02734	02	0	0	3.042621380357653	49.31118847779485
Tannières	02735	02	0	0	3.552492077382089	49.291054170464754
Tartiers	02736	02	0	0	3.238418678838033	49.433206895743858
Tavaux-et-Pontséricourt	02737	02	0	0	3.905167016507067	49.730229665405609
Tergnier	02738	02	0	0	3.287899413736492	49.655977298495635
Terny-Sorny	02739	02	0	0	3.368065323995919	49.447263128975457
Thenailles	02740	02	0	0	3.938693685425912	49.819827894436365
Thenelles	02741	02	0	0	3.468057121274704	49.831524486692928
Thiernu	02742	02	0	0	3.789194484987883	49.760687793251734
Le Thuel	02743	02	0	0	4.076754813123852	49.649754227015755
Torcy-en-Valois	02744	02	0	0	3.277900159853232	49.087916462401139
Toulis-et-Attencourt	02745	02	0	0	3.742539879219402	49.699879976341691
Travecy	02746	02	0	0	3.360100607151782	49.688133655245849
Trefcon	02747	02	0	0	3.095881951658046	49.857538821202645
Trélou-sur-Marne	02748	02	0	0	3.606327026769638	49.076817937685192
Troësnes	02749	02	0	0	3.170097290261054	49.193309822482902
Trosly-Loire	02750	02	0	0	3.226390830498115	49.518612951389862
Trucy	02751	02	0	0	3.612355182717371	49.47144092395822
Tugny-et-Pont	02752	02	0	0	3.153944045484709	49.757754522433608
Tupigny	02753	02	0	0	3.607058319754669	49.95758007694436
Ugny-le-Gay	02754	02	0	0	3.160571037224057	49.659806367023265
Urcel	02755	02	0	0	3.557404154982018	49.491479364707843
Urvillers	02756	02	0	0	3.309464020958769	49.788905158150634
Vadencourt	02757	02	0	0	3.57888599835844	49.928971110827945
Vailly-sur-Aisne	02758	02	0	0	3.516563285068732	49.408969877272888
La Vallée-au-Blé	02759	02	0	0	3.789318770015687	49.858619527728933
La Vallée-Mulâtre	02760	02	0	0	3.559018256689885	50.020685866824898
Variscourt	02761	02	0	0	3.985100358384511	49.417748294176612
Vassens	02762	02	0	0	3.153075630641083	49.467498942483779
Vasseny	02763	02	0	0	3.485733669431104	49.353367386909312
Vassogne	02764	02	0	0	3.72889175667783	49.422259006738841
Vaucelles-et-Beffecourt	02765	02	0	0	3.555052147332193	49.529237761798683
Vaudesson	02766	02	0	0	3.48545743261837	49.470218219270656
Vauxrezis	02767	02	0	0	3.281032860120361	49.413341400216034
Vauxaillon	02768	02	0	0	3.40829125441951	49.478591821891136
Vaux-Andigny	02769	02	0	0	3.513042785673202	50.023581558339551
Vauxbuin	02770	02	0	0	3.294495445979579	49.358479026479387
Vauxcéré	02771	02	0	0	3.635569725660835	49.340986449223706
Vaux-en-Vermandois	02772	02	0	0	3.140252605789412	49.822458825190708
Vauxtin	02773	02	0	0	3.604035308624159	49.350137359066217
Vendelles	02774	02	0	0	3.136321636453611	49.910502370551839
Vendeuil	02775	02	0	0	3.351982090025591	49.716012228766544
Vendhuile	02776	02	0	0	3.207670340950016	50.010108353315175
Vendières	02777	02	0	0	3.447149714074348	48.870690838361909
Vendresse-Beaulne	02778	02	0	0	3.666949006499852	49.427110393584506
Vénérolles	02779	02	0	0	3.639396350628533	49.982566992099734
Venizel	02780	02	0	0	3.392255160897179	49.365392434320988
Verdilly	02781	02	0	0	3.424259536698796	49.07310272861956
Le Verguier	02782	02	0	0	3.169754281662896	49.924833361884573
Grand-Verly	02783	02	0	0	3.584555021572911	49.937927221512979
Petit-Verly	02784	02	0	0	3.557093143823367	49.972190012508584
Vermand	02785	02	0	0	3.150136760164622	49.878146390379705
Verneuil-sous-Coucy	02786	02	0	0	3.313499749010492	49.541785730644207
Verneuil-sur-Serre	02787	02	0	0	3.674011541563357	49.650855991232802
Versigny	02788	02	0	0	3.435976090742054	49.652840863418902
Vervins	02789	02	0	0	3.909807683403158	49.835320463445029
Vesles-et-Caumont	02790	02	0	0	3.785028044200606	49.669959721407423
Veslud	02791	02	0	0	3.731853051620947	49.533692450961297
Veuilly-la-Poterie	02792	02	0	0	3.212179106954819	49.08535302382257
Vézaponin	02793	02	0	0	3.230262396724767	49.458389023474744
Vézilly	02794	02	0	0	3.691202497757634	49.180658246007646
Vic-sur-Aisne	02795	02	0	0	3.114324252814504	49.405524226662955
Vichel-Nanteuil	02796	02	0	0	3.289408729514846	49.187688055573815
Viel-Arcy	02797	02	0	0	3.623656219406694	49.37970142109215
Viels-Maisons	02798	02	0	0	3.396908669094504	48.896947969120731
Vierzy	02799	02	0	0	3.285860012671139	49.290182088615019
Viffort	02800	02	0	0	3.457490063610067	48.961479773932062
Vigneux-Hocquet	02801	02	0	0	3.991292141586911	49.739443497961467
La Ville-aux-Bois-lès-Dizy	02802	02	0	0	3.992548611411563	49.661254498854483
La Ville-aux-Bois-lès-Pontavert	02803	02	0	0	3.850239219587269	49.427759510226714
Villemontoire	02804	02	0	0	3.332644512029411	49.299051705934033
Villeneuve-Saint-Germain	02805	02	0	0	3.35794089157639	49.378982010007135
Villeneuve-sur-Fère	02806	02	0	0	3.47448120396213	49.177211630883377
Villequier-Aumont	02807	02	0	0	3.206243313109795	49.657940338160671
Villeret	02808	02	0	0	3.193514187395868	49.952644735379913
Villers-Agron-Aiguizy	02809	02	0	0	3.697804805205037	49.161739347741594
Villers-Cotterêts	02810	02	0	0	3.090639679275027	49.252730162298953
Villers-en-Prayères	02811	02	0	0	3.675945725343805	49.377622683546662
Villers-Hélon	02812	02	0	0	3.262359644525348	49.263266638497662
Villers-le-Sec	02813	02	0	0	3.500869921043653	49.77838617943911
Villers-lès-Guise	02814	02	0	0	3.677550414238731	49.918582781892205
Villers-Saint-Christophe	02815	02	0	0	3.092960441247908	49.779379419843671
Villers-sur-Fère	02816	02	0	0	3.533493150980935	49.181460019481115
Ville-Savoye	02817	02	0	0	3.640480864622412	49.293316319737841
Villiers-Saint-Denis	02818	02	0	0	3.267825286290481	48.992627055326523
Vincy-Reuil-et-Magny	02819	02	0	0	4.060158493573508	49.717297605795501
Viry-Noureuil	02820	02	0	0	3.243492262412135	49.631812137735054
Vivaise	02821	02	0	0	3.561576456517766	49.620873892240766
Vivières	02822	02	0	0	3.103094653388095	49.300364846962587
Voharies	02823	02	0	0	3.795175024569737	49.788502495149885
Vorges	02824	02	0	0	3.654322972507764	49.517957950478355
Voulpaix	02826	02	0	0	3.830698147823756	49.839478159130032
Voyenne	02827	02	0	0	3.730418560963124	49.724214473275055
Vregny	02828	02	0	0	3.422887754966914	49.408434649138542
Vuillery	02829	02	0	0	3.387235882129036	49.430125923646308
Wassigny	02830	02	0	0	3.599359859622877	50.013309500316581
Watigny	02831	02	0	0	4.198919670349646	49.902004706445325
Wiège-Faty	02832	02	0	0	3.718767171777964	49.881514835917145
Wimy	02833	02	0	0	3.997866447261465	49.934355770771937
Wissignicourt	02834	02	0	0	3.447303293801418	49.523391809220698
Abrest	03001	03	0	0	3.443989236218054	46.098421082755124
Agonges	03002	03	0	0	3.158086414907023	46.606143000158283
Ainay-le-Château	03003	03	0	0	2.692378294455184	46.711189266769566
Andelaroche	03004	03	0	0	3.749032254179995	46.25531037709969
Archignat	03005	03	0	0	2.423690481965063	46.37248005062537
Arfeuilles	03006	03	0	0	3.726948471832181	46.156396236213709
Arpheuilles-Saint-Priest	03007	03	0	0	2.678241488552327	46.224902444191478
Arronnes	03008	03	0	0	3.569134498167925	46.058239972267373
Aubigny	03009	03	0	0	3.166156320053239	46.68176744479792
Audes	03010	03	0	0	2.55829932949529	46.457725395144323
Aurouër	03011	03	0	0	3.299633494803743	46.686899041862475
Autry-Issards	03012	03	0	0	3.135732243042826	46.548543599375876
Avermes	03013	03	0	0	3.306924632127045	46.587832143720057
Avrilly	03014	03	0	0	3.981517949128308	46.333691591314611
Bagneux	03015	03	0	0	3.205313835612234	46.657392632527731
Barberier	03016	03	0	0	3.246476702175848	46.217886557975106
Barrais-Bussolles	03017	03	0	0	3.715741152969777	46.290644640173234
Bayet	03018	03	0	0	3.268679794540395	46.248452810986294
Beaulon	03019	03	0	0	3.67279835804037	46.601575183610649
Beaune-d'Allier	03020	03	0	0	2.884411903926783	46.281128493543463
Bègues	03021	03	0	0	3.1554144750368	46.127998727309098
Bellenaves	03022	03	0	0	3.080403054739796	46.200115504622012
Bellerive-sur-Allier	03023	03	0	0	3.40399511638862	46.116580491674952
Bert	03024	03	0	0	3.707090750280273	46.324918059591965
Bessay-sur-Allier	03025	03	0	0	3.362114292742151	46.441796947513403
Besson	03026	03	0	0	3.264557742006236	46.469978865229166
Bézenet	03027	03	0	0	2.845314869052204	46.328807338713865
Billezois	03028	03	0	0	3.572011467280036	46.21041184049821
Billy	03029	03	0	0	3.429533709589331	46.236253012123072
Biozat	03030	03	0	0	3.27301447477829	46.076448720872179
Bizeneuille	03031	03	0	0	2.737044944236572	46.407850573705396
Blomard	03032	03	0	0	2.976619155209874	46.289289039048484
Bost	03033	03	0	0	3.518534755103835	46.179150604122867
Boucé	03034	03	0	0	3.492557691143092	46.31794266716777
Le Bouchaud	03035	03	0	0	3.897850929509837	46.305564299224208
Bourbon-l'Archambault	03036	03	0	0	3.056155377750593	46.582827007598908
Braize	03037	03	0	0	2.649465628311416	46.666945429564649
Bransat	03038	03	0	0	3.23007373959707	46.32777962565163
Bresnay	03039	03	0	0	3.248791675887884	46.442099991403474
Bressolles	03040	03	0	0	3.317042650844501	46.531076389531336
Le Brethon	03041	03	0	0	2.717978959633761	46.570787763391216
Le Breuil	03042	03	0	0	3.658587396139791	46.182928022904235
Broût-Vernet	03043	03	0	0	3.27357034252097	46.188108501494291
Brugheas	03044	03	0	0	3.367474552640034	46.077082602820134
Busset	03045	03	0	0	3.512256298454647	46.062113157700317
Buxières-les-Mines	03046	03	0	0	2.959600742542525	46.468477031637747
La Celle	03047	03	0	0	2.784614569718907	46.228755496826679
Cérilly	03048	03	0	0	2.820971155508055	46.617817823165986
Cesset	03049	03	0	0	3.207883972579618	46.303509389656078
La Chabanne	03050	03	0	0	3.752319344417604	46.022052063911069
Chambérat	03051	03	0	0	2.412780397950548	46.419249848004846
Chamblet	03052	03	0	0	2.702305139897826	46.333025944664335
Chantelle	03053	03	0	0	3.15313065596985	46.237861142705789
Chapeau	03054	03	0	0	3.522774795528307	46.487999310254104
La Chapelaude	03055	03	0	0	2.505222523237399	46.41968786952539
La Chapelle	03056	03	0	0	3.572068106487572	46.091544225755129
La Chapelle-aux-Chasses	03057	03	0	0	3.531072879920324	46.670753802921389
Chappes	03058	03	0	0	2.927128950746723	46.38741949716362
Chareil-Cintrat	03059	03	0	0	3.22072774646457	46.266565554320962
Charmeil	03060	03	0	0	3.392663555478112	46.161645163949579
Charmes	03061	03	0	0	3.25230796766511	46.075596161917161
Charroux	03062	03	0	0	3.160761059029332	46.184722036108539
Chassenard	03063	03	0	0	3.97948881281993	46.438171066872727
Château-sur-Allier	03064	03	0	0	3.028827446151793	46.765622154231309
Châtel-de-Neuvre	03065	03	0	0	3.312416222660029	46.406825451395683
Châtel-Montagne	03066	03	0	0	3.682355775732621	46.11344777197916
Châtelperron	03067	03	0	0	3.63646414245792	46.399175131749345
Châtelus	03068	03	0	0	3.733920930409094	46.193272898296691
Châtillon	03069	03	0	0	3.132937445108647	46.472909129429432
Chavenon	03070	03	0	0	2.946622465220121	46.413543734201234
Chavroches	03071	03	0	0	3.587823722431684	46.354411437198451
Chazemais	03072	03	0	0	2.525507065531733	46.482807093174863
Chemilly	03073	03	0	0	3.314184093607727	46.487862411080386
Chevagnes	03074	03	0	0	3.551398341603187	46.611228363906569
Chezelle	03075	03	0	0	3.123238651278652	46.21808682765932
Chézy	03076	03	0	0	3.467768339566839	46.610699847802437
Chirat-l'Église	03077	03	0	0	3.035041867459123	46.243361660851633
Chouvigny	03078	03	0	0	2.990934441338101	46.12630373048615
Cindré	03079	03	0	0	3.565427397412289	46.326609374027036
Cognat-Lyonne	03080	03	0	0	3.310715629008778	46.107869115405144
Colombier	03081	03	0	0	2.793530804688375	46.272895670325369
Commentry	03082	03	0	0	2.741512687262424	46.28899813732987
Contigny	03083	03	0	0	3.304304900225568	46.352818988922913
Cosne-d'Allier	03084	03	0	0	2.831865001013046	46.475564136172267
Coulandon	03085	03	0	0	3.255815115031833	46.551039528748433
Coulanges	03086	03	0	0	3.85908813680003	46.485066112936593
Couleuvre	03087	03	0	0	2.907126291544247	46.671945558029321
Courçais	03088	03	0	0	2.435685901131353	46.470692763665696
Coutansouze	03089	03	0	0	3.010378000053323	46.218153110982833
Couzon	03090	03	0	0	3.120313462800764	46.658413731433065
Créchy	03091	03	0	0	3.423240165447505	46.261490386481213
Cressanges	03092	03	0	0	3.160227511814191	46.445860397866099
Creuzier-le-Neuf	03093	03	0	0	3.449852655741896	46.1821446575251
Creuzier-le-Vieux	03094	03	0	0	3.438019849565671	46.161479385588962
Cusset	03095	03	0	0	3.455937807747261	46.134393852801153
Deneuille-lès-Chantelle	03096	03	0	0	3.146661366661093	46.245073518773069
Deneuille-les-Mines	03097	03	0	0	2.782724413868296	46.378231214057493
Désertines	03098	03	0	0	2.618957170900353	46.354389352952467
Deux-Chaises	03099	03	0	0	3.037731826763769	46.380232799946583
Diou	03100	03	0	0	3.745040752251667	46.534492690665132
Domérat	03101	03	0	0	2.534373586291633	46.360378752495699
Dompierre-sur-Besbre	03102	03	0	0	3.680951348121688	46.522285363023506
Le Donjon	03103	03	0	0	3.793250698862317	46.350465938284664
Doyet	03104	03	0	0	2.797192969896428	46.335935673596012
Droiturier	03105	03	0	0	3.718857421417887	46.231190967533472
Durdat-Larequille	03106	03	0	0	2.701447535122498	46.251980316532304
Ébreuil	03107	03	0	0	3.086753238366884	46.115465091009767
Échassières	03108	03	0	0	2.9338804562726	46.184816473870818
Escurolles	03109	03	0	0	3.265573119605142	46.143102923703708
Espinasse-Vozelle	03110	03	0	0	3.323773449409388	46.126743040587499
Estivareilles	03111	03	0	0	2.618460751898274	46.425525255656879
Étroussat	03112	03	0	0	3.220535552100676	46.218840293790393
Ferrières-sur-Sichon	03113	03	0	0	3.648944647460725	46.025392628467067
La Ferté-Hauterive	03114	03	0	0	3.3396907191504	46.396842354490431
Fleuriel	03115	03	0	0	3.177930495863688	46.281948634972814
Fourilles	03116	03	0	0	3.194670260507215	46.241399595161646
Franchesse	03117	03	0	0	3.036602617691524	46.636860814770699
Gannat	03118	03	0	0	3.198052595358905	46.100017140812717
Gannay-sur-Loire	03119	03	0	0	3.610230915527226	46.730689520880695
Garnat-sur-Engièvre	03120	03	0	0	3.662742340236055	46.634050419701417
Gennetines	03121	03	0	0	3.409161343580934	46.636136465576975
Gipcy	03122	03	0	0	3.05476882236295	46.502688233243184
Givarlais	03123	03	0	0	2.648195859031844	46.458938022499339
Gouise	03124	03	0	0	3.42960572060623	46.410946937355924
La Guillermie	03125	03	0	0	3.638101930388295	45.982229149802698
Hauterive	03126	03	0	0	3.446497526942831	46.088505700882514
Hérisson	03127	03	0	0	2.711779587891417	46.508641308488862
Huriel	03128	03	0	0	2.477026743884535	46.372737035134513
Hyds	03129	03	0	0	2.829853660314513	46.284661966370734
Isle-et-Bardais	03130	03	0	0	2.793262027365472	46.688004437617352
Isserpent	03131	03	0	0	3.609095015692421	46.162492200381244
Jaligny-sur-Besbre	03132	03	0	0	3.591998058838362	46.379603649495657
Jenzat	03133	03	0	0	3.195678607570409	46.160354119636708
Laféline	03134	03	0	0	3.167747357035064	46.349499741663372
Lalizolle	03135	03	0	0	3.001295802407038	46.156920647061106
Lamaids	03136	03	0	0	2.432225373408169	46.302284292414697
Langy	03137	03	0	0	3.471329789044674	46.267604905650074
Lapalisse	03138	03	0	0	3.637323329976641	46.249687077955528
Laprugne	03139	03	0	0	3.742784995052241	45.98609366666367
Lavault-Sainte-Anne	03140	03	0	0	2.599773171294551	46.310199962299748
Lavoine	03141	03	0	0	3.696168798101107	45.977384489336423
Lenax	03142	03	0	0	3.815877166271559	46.298076096879015
Lételon	03143	03	0	0	2.585458874130678	46.65592675208012
Liernolles	03144	03	0	0	3.752247153378873	46.394868700570626
Lignerolles	03145	03	0	0	2.566224007766573	46.2803610469144
Limoise	03146	03	0	0	3.052327566754971	46.676473315773158
Loddes	03147	03	0	0	3.76637330733518	46.288514187001844
Loriges	03148	03	0	0	3.346688179242973	46.268953141441642
Louchy-Montfand	03149	03	0	0	3.245578881593328	46.307036290206121
Louroux-Bourbonnais	03150	03	0	0	2.840815162776741	46.535006706773125
Louroux-de-Beaune	03151	03	0	0	2.85450977507062	46.292800429756127
Louroux-de-Bouble	03152	03	0	0	2.977943489096763	46.226255782508908
Louroux-Hodement	03153	03	0	0	2.714637688773809	46.460924201679752
Luneau	03154	03	0	0	3.952137621544121	46.363658449144957
Lurcy-Lévis	03155	03	0	0	2.938454954288269	46.729593133474928
Lusigny	03156	03	0	0	3.491083675835841	46.588091023662798
Magnet	03157	03	0	0	3.503284848051845	46.212537720713286
Maillet	03158	03	0	0	2.651978402559418	46.478759797236116
Malicorne	03159	03	0	0	2.781729063468014	46.3016890076157
Marcenat	03160	03	0	0	3.395781482186708	46.234574428265311
Marcillat-en-Combraille	03161	03	0	0	2.63321832796455	46.167134622950741
Marigny	03162	03	0	0	3.208946334614151	46.581749723869102
Mariol	03163	03	0	0	3.496359754185801	46.02076041623156
Le Mayet-d'École	03164	03	0	0	3.241073884414308	46.169271780948151
Le Mayet-de-Montagne	03165	03	0	0	3.6663055094738	46.071218588048445
Mazerier	03166	03	0	0	3.19037324152392	46.12524403457008
Mazirat	03167	03	0	0	2.539428501445152	46.223524667891276
Meaulne	03168	03	0	0	2.614636261806996	46.598400423576578
Meillard	03169	03	0	0	3.235536772744413	46.38900061305344
Meillers	03170	03	0	0	3.092593008197779	46.5071661104923
Mercy	03171	03	0	0	3.516001020261916	46.461015899189761
Mesples	03172	03	0	0	2.359229992788272	46.433369709055171
Molinet	03173	03	0	0	3.935670659900676	46.465554054357739
Molles	03174	03	0	0	3.558032821392946	46.111425361094732
Monestier	03175	03	0	0	3.112938602474777	46.25591774425903
Monétay-sur-Allier	03176	03	0	0	3.303159240424085	46.380736747426056
Monétay-sur-Loire	03177	03	0	0	3.816552925545503	46.430447112433392
Montaiguët-en-Forez	03178	03	0	0	3.802490306945121	46.271155498560994
Montaigu-le-Blin	03179	03	0	0	3.510533467677386	46.294450733274232
Montbeugny	03180	03	0	0	3.489243550684005	46.528668690131653
Montcombroux-les-Mines	03181	03	0	0	3.690546602844039	46.352935163185791
Monteignet-sur-l'Andelot	03182	03	0	0	3.256391261099206	46.118810722231238
Le Montet	03183	03	0	0	3.054674918206987	46.409040807470546
Montilly	03184	03	0	0	3.252183051938654	46.612277577779651
Montluçon	03185	03	0	0	2.60215595089637	46.339924273313329
Montmarault	03186	03	0	0	2.954514054324969	46.317197075009489
Montoldre	03187	03	0	0	3.445904356345876	46.334343518601138
Montord	03188	03	0	0	3.229926126539437	46.292661291206102
Montvicq	03189	03	0	0	2.821946503269209	46.319768483275809
Moulins	03190	03	1	0	3.332902416867343	46.564348000873863
Murat	03191	03	0	0	2.911488941205133	46.402716341692724
Nades	03192	03	0	0	2.967603878374792	46.158717008791633
Nassigny	03193	03	0	0	2.60234299739002	46.493005305441734
Naves	03194	03	0	0	3.108883069416926	46.174878217170019
Néris-les-Bains	03195	03	0	0	2.660985400504626	46.287886439572667
Neuilly-en-Donjon	03196	03	0	0	3.885499628684135	46.345284239807754
Neuilly-le-Réal	03197	03	0	0	3.431327086191652	46.464068310589298
Neure	03198	03	0	0	2.980351769692807	46.746715653550432
Neuvy	03200	03	0	0	3.28980696906207	46.561763868904784
Nizerolles	03201	03	0	0	3.638156918056674	46.098395997175544
Noyant-d'Allier	03202	03	0	0	3.123828609503895	46.47922254329967
Paray-le-Frésil	03203	03	0	0	3.610699780640686	46.655950337003404
Paray-sous-Briailles	03204	03	0	0	3.365010385614654	46.290507555128414
Périgny	03205	03	0	0	3.555560675621665	46.251016038805936
La Petite-Marche	03206	03	0	0	2.572094464019724	46.193935856162859
Pierrefitte-sur-Loire	03207	03	0	0	3.816381676455948	46.506090557583633
Le Pin	03208	03	0	0	3.894405305148942	46.412754031433558
Poëzat	03209	03	0	0	3.223849951603138	46.077456865281718
Pouzy-Mésangy	03210	03	0	0	3.003926910166751	46.708900133912813
Prémilhat	03211	03	0	0	2.536071547886811	46.313560365522243
Quinssaines	03212	03	0	0	2.509960837634961	46.326958425044644
Reugny	03213	03	0	0	2.614299844967312	46.461530028075764
Rocles	03214	03	0	0	3.031251057099944	46.423457011445493
Rongères	03215	03	0	0	3.450770338159392	46.293802411628249
Ronnet	03216	03	0	0	2.700405591892305	46.205152215624501
Saint-Angel	03217	03	0	0	2.696970582140758	46.357324764263048
Saint-Aubin-le-Monial	03218	03	0	0	2.997390753896962	46.527913848464578
Saint-Bonnet-de-Four	03219	03	0	0	2.910335114439948	46.312668508144213
Saint-Bonnet-de-Rochefort	03220	03	0	0	3.138623416805423	46.146030239610354
Saint-Bonnet-Tronçais	03221	03	0	0	2.692668701972126	46.659865900385093
Saint-Caprais	03222	03	0	0	2.736353867354865	46.551021757885636
Saint-Christophe	03223	03	0	0	3.575448846656468	46.167170111627058
Saint-Clément	03224	03	0	0	3.70500190518945	46.061979448534935
Saint-Désiré	03225	03	0	0	2.431494749841173	46.497686258442982
Saint-Didier-en-Donjon	03226	03	0	0	3.858860356105684	46.387812509563901
Saint-Didier-la-Forêt	03227	03	0	0	3.343814268616863	46.224837928207897
Saint-Éloy-d'Allier	03228	03	0	0	2.359898872020264	46.487402574849696
Saint-Ennemond	03229	03	0	0	3.422541130205488	46.675707094303171
Saint-Étienne-de-Vicq	03230	03	0	0	3.534064027247127	46.176377187004846
Saint-Fargeol	03231	03	0	0	2.62822947484753	46.138302525504344
Saint-Félix	03232	03	0	0	3.481360782849627	46.227040596829603
Saint-Genest	03233	03	0	0	2.593617160883587	46.264253280212408
Saint-Gérand-de-Vaux	03234	03	0	0	3.398139043885868	46.380444842800401
Saint-Gérand-le-Puy	03235	03	0	0	3.511487495006679	46.257526112327923
Saint-Germain-des-Fossés	03236	03	0	0	3.433191756645957	46.20652279697093
Saint-Germain-de-Salles	03237	03	0	0	3.213894626418882	46.179231555579292
Saint-Hilaire	03238	03	0	0	3.019557389626331	46.494595625737588
Saint-Léger-sur-Vouzance	03239	03	0	0	3.936015993727215	46.409718856735537
Saint-Léon	03240	03	0	0	3.687267930264126	46.402482502568034
Saint-Léopardin-d'Augy	03241	03	0	0	3.103358887038481	46.682741620443124
Saint-Loup	03242	03	0	0	3.378416964668604	46.350796177592443
Saint-Marcel-en-Murat	03243	03	0	0	3.009097789042443	46.320807681563494
Saint-Marcel-en-Marcillat	03244	03	0	0	2.589315214596989	46.14537248811844
Saint-Martin-des-Lais	03245	03	0	0	3.655300971087381	46.667410025428957
Saint-Martinien	03246	03	0	0	2.470879703225114	46.335788622214785
Saint-Menoux	03247	03	0	0	3.160632961310624	46.583628558662447
Saint-Nicolas-des-Biefs	03248	03	0	0	3.782586323095352	46.059669619022593
Saint-Palais	03249	03	0	0	2.30054516309753	46.439328822577572
Saint-Pierre-Laval	03250	03	0	0	3.779429861632227	46.201975307960772
Saint-Plaisir	03251	03	0	0	2.967327745182685	46.622455157295356
Saint-Pont	03252	03	0	0	3.298072269805729	46.16373363335552
Saint-Pourçain-sur-Besbre	03253	03	0	0	3.636053779801818	46.475718901740507
Saint-Pourçain-sur-Sioule	03254	03	0	0	3.289761494854711	46.307832975707569
Saint-Priest-d'Andelot	03255	03	0	0	3.166898070165625	46.07125148664948
Saint-Priest-en-Murat	03256	03	0	0	2.911574940542091	46.349588842235214
Saint-Prix	03257	03	0	0	3.651386659239252	46.231597242208224
Saint-Rémy-en-Rollat	03258	03	0	0	3.391521870412971	46.183261015917729
Saint-Sauvier	03259	03	0	0	2.331152653595949	46.386382991489434
Saint-Sornin	03260	03	0	0	3.015621922584187	46.41085375700532
Sainte-Thérence	03261	03	0	0	2.560034410476623	46.242516617042426
Saint-Victor	03262	03	0	0	2.608263111468077	46.3948746260942
Saint-Voir	03263	03	0	0	3.519387189745706	46.406071347242907
Saint-Yorre	03264	03	0	0	3.464425560982911	46.065921105181573
Saligny-sur-Roudon	03265	03	0	0	3.749343370801189	46.467828319627223
Sanssat	03266	03	0	0	3.475115607507728	46.254982242463335
Saulcet	03267	03	0	0	3.262556839488569	46.325007998754849
Saulzet	03268	03	0	0	3.218903830831546	46.135098025386299
Sauvagny	03269	03	0	0	2.820235577178572	46.444930863640842
Sazeret	03270	03	0	0	2.955795464064942	46.339709384119956
Serbannes	03271	03	0	0	3.358558219330436	46.098723106218365
Servilly	03272	03	0	0	3.587001974840458	46.277873326463663
Seuillet	03273	03	0	0	3.472069291774497	46.202766071336519
Sorbier	03274	03	0	0	3.660789704836613	46.365718479415868
Souvigny	03275	03	0	0	3.191804563515571	46.534956675698879
Sussat	03276	03	0	0	3.063489094873868	46.15240048381925
Target	03277	03	0	0	3.061049973238372	46.289275077923179
Taxat-Senat	03278	03	0	0	3.137465453408827	46.200961326923377
Teillet-Argenty	03279	03	0	0	2.511863294111955	46.259429629601897
Terjat	03280	03	0	0	2.614814723182175	46.203994038499225
Le Theil	03281	03	0	0	3.133951120812937	46.354947275147566
Theneuille	03282	03	0	0	2.86287198205102	46.584559552321409
Thiel-sur-Acolin	03283	03	0	0	3.581822512182288	46.523732975184274
Thionne	03284	03	0	0	3.575349878322773	46.404902501093076
Tortezais	03285	03	0	0	2.857993325101273	46.452187713303637
Toulon-sur-Allier	03286	03	0	0	3.358703679617405	46.517446528503605
Treban	03287	03	0	0	3.174424391010603	46.404418317826114
Treignat	03288	03	0	0	2.34071734679306	46.348617694865879
Treteau	03289	03	0	0	3.525523088401103	46.367322393037639
Trévol	03290	03	0	0	3.305851289783783	46.629255180918328
Trézelles	03291	03	0	0	3.592752162716765	46.329172038724487
Tronget	03292	03	0	0	3.067709494095474	46.4225407516168
Urçay	03293	03	0	0	2.589619774444412	46.624426391435222
Ussel-d'Allier	03294	03	0	0	3.190657794396054	46.207187986864277
Valignat	03295	03	0	0	3.075183660301418	46.176706474321705
Valigny	03296	03	0	0	2.81673236892509	46.712355560927463
Vallon-en-Sully	03297	03	0	0	2.608551615263854	46.536248745427372
Varennes-sur-Allier	03298	03	0	0	3.401546067930417	46.312896777307564
Varennes-sur-Tèche	03299	03	0	0	3.629116660312729	46.326275629783225
Vaumas	03300	03	0	0	3.63049701463653	46.446033708231624
Vaux	03301	03	0	0	2.597619559837343	46.426354188915667
Veauce	03302	03	0	0	3.057023718020271	46.165010722004595
Venas	03303	03	0	0	2.764086103924165	46.476344789357313
Vendat	03304	03	0	0	3.353798137503528	46.163573804680063
Verneix	03305	03	0	0	2.669419651986641	46.396869106902074
Le Vernet	03306	03	0	0	3.463496414496944	46.109149155858468
Verneuil-en-Bourbonnais	03307	03	0	0	3.252258277682116	46.346642677646798
Vernusse	03308	03	0	0	2.977926442512902	46.268578328696925
Le Veurdre	03309	03	0	0	3.039302978020209	46.755714639658656
Vichy	03310	03	0	0	3.426091100226996	46.127305737273964
Vicq	03311	03	0	0	3.091985324657125	46.146978062991515
Vieure	03312	03	0	0	2.876122313197136	46.50083334931724
Le Vilhain	03313	03	0	0	2.797660175889678	46.561051439691369
Villebret	03314	03	0	0	2.639040853332417	46.267107819157332
Villefranche-d'Allier	03315	03	0	0	2.856836962489993	46.396357620549317
Villeneuve-sur-Allier	03316	03	0	0	3.248481058456862	46.660008505529945
Viplaix	03317	03	0	0	2.379760276809965	46.460497614583957
Vitray	03318	03	0	0	2.65897149248251	46.611147158477529
Voussac	03319	03	0	0	3.062393042116024	46.327994748142125
Ygrande	03320	03	0	0	2.94387618161331	46.552212092731622
Yzeure	03321	03	0	0	3.355107363471494	46.56608217468635
Aiglun	04001	04	0	0	6.14069899118089	44.053663298155335
Allemagne-en-Provence	04004	04	0	0	6.007686409840425	43.781815847340617
Allons	04005	04	0	0	6.595555648010665	43.977496588533889
Allos	04006	04	0	0	6.628514642979975	44.240398782423185
Angles	04007	04	0	0	6.558449016694365	43.942675848183988
Annot	04008	04	0	0	6.668371033090239	43.965165856899503
Archail	04009	04	0	0	6.334487634546855	44.120897219858271
Aubenas-les-Alpes	04012	04	0	0	5.680347097432442	43.930828755412662
Aubignosc	04013	04	0	0	5.968566171980504	44.129621116957807
Authon	04016	04	0	0	6.125834737412167	44.237845686564491
Auzet	04017	04	0	0	6.317098824765771	44.294395382539719
Banon	04018	04	0	0	5.627985709317159	44.038358027546501
Barcelonnette	04019	04	0	0	6.652903420532271	44.385568487145335
Barles	04020	04	0	0	6.267649225729969	44.263444834917173
Barras	04021	04	0	0	6.113526113309263	44.104880727188728
Barrême	04022	04	0	0	6.368374208653895	43.954107995341005
Bayons	04023	04	0	0	6.164028362687557	44.338547664785303
Beaujeu	04024	04	0	0	6.371903804949802	44.203534876144147
Beauvezer	04025	04	0	0	6.59104087394461	44.143420364084641
Bellaffaire	04026	04	0	0	6.17734186309961	44.419244457477355
Bevons	04027	04	0	0	5.890701699644888	44.172232918927605
Beynes	04028	04	0	0	6.202250891145574	43.993331096922759
Blieux	04030	04	0	0	6.371003823896397	43.872057201813782
Bras-d'Asse	04031	04	0	0	6.126153697148415	43.925280953757962
Braux	04032	04	0	0	6.699643430011353	43.985734466664098
La Bréole	04033	04	0	0	6.295153482257733	44.456325760004994
La Brillanne	04034	04	0	0	5.890703439087652	43.92636396880755
Brunet	04035	04	0	0	6.030876831606621	43.891042139989601
Le Brusquet	04036	04	0	0	6.309327511081523	44.161297646920865
Le Caire	04037	04	0	0	6.06025817143975	44.369410228394315
Castellane	04039	04	0	0	6.51264931007614	43.846869265312783
Le Castellard-Mélan	04040	04	0	0	6.124312343021929	44.18744425287526
Le Castellet	04041	04	0	0	5.979799791909075	43.938378635881186
Castellet-lès-Sausses	04042	04	0	0	6.763854143455195	43.994353855318941
Val-de-Chalvagne	04043	04	0	0	6.807190123141483	43.914464666473862
Céreste	04045	04	0	0	5.58722705336461	43.855638284407895
Le Chaffaut-Saint-Jurson	04046	04	0	0	6.149828680582712	44.038088471006297
Champtercier	04047	04	0	0	6.16299923925032	44.095356290466547
Château-Arnoux-Saint-Auban	04049	04	0	0	6.007917955025349	44.093420676750071
Châteaufort	04050	04	0	0	6.016256142819231	44.274239631526825
Châteauneuf-Miravail	04051	04	0	0	5.726284479446858	44.162033707540971
Châteauneuf-Val-Saint-Donat	04053	04	0	0	5.949217087474466	44.094116579354292
Châteauredon	04054	04	0	0	6.214679086125932	44.014584065062202
Chaudon-Norante	04055	04	0	0	6.3124769586071	43.979237183712698
Clamensane	04057	04	0	0	6.0677553447328	44.322358126242328
Claret	04058	04	0	0	5.956172862043059	44.372255888083401
Clumanc	04059	04	0	0	6.383738717258315	44.023896475549677
Colmars	04061	04	0	0	6.625972043065827	44.181013941241808
La Condamine-Châtelard	04062	04	0	0	6.745673929970205	44.458150066459972
Corbières	04063	04	0	0	5.751882457776629	43.760664797013192
Cruis	04065	04	0	0	5.836392078673677	44.061972864611995
Curbans	04066	04	0	0	6.038267911057466	44.42767356248256
Curel	04067	04	0	0	5.661935835669069	44.177123553557912
Dauphin	04068	04	0	0	5.783436996575369	43.898533425145366
